[
  {
    "id": 752963,
    "name": "Żyrzyn",
    "state": "",
    "country": "PL",
    "coord": {
      "lon": 22.0917,
      "lat": 51.49918
    }
  },
  {
    "id": 752967,
    "name": "Żyrardów",
    "state": "",
    "country": "PL",
    "coord": {
      "lon": 20.44599,
      "lat": 52.048801
    }
  },
  {
    "id": 752968,
    "name": "Żyraków",
    "state": "",
    "country": "PL",
    "coord": {
      "lon": 21.396219,
      "lat": 50.085449
    }
  },
  {
    "id": 753004,
    "name": "Zwoleń",
    "state": "",
    "country": "PL",
    "coord": {
      "lon": 21.587681,
      "lat": 51.355419
    }
  },
  {
    "id": 753020,
    "name": "Zwierzyniec",
    "state": "",
    "country": "PL",
    "coord": {
      "lon": 22.975121,
      "lat": 50.613998
    }
  },
  {
    "id": 753037,
    "name": "Żurowa",
    "state": "",
    "country": "PL",
    "coord": {
      "lon": 21.16894,
      "lat": 49.826359
    }
  },
  {
    "id": 753053,
    "name": "Żurawiczki",
    "state": "",
    "country": "PL",
    "coord": {
      "lon": 22.499491,
      "lat": 50.013699
    }
  },
  {
    "id": 753056,
    "name": "Żurawica",
    "state": "",
    "country": "PL",
    "coord": {
      "lon": 22.789249,
      "lat": 49.823479
    }
  },
  {
    "id": 753130,
    "name": "Żołynia",
    "state": "",
    "country": "PL",
    "coord": {
      "lon": 22.30825,
      "lat": 50.161999
    }
  },
  {
    "id": 753140,
    "name": "Żółkiewka",
    "state": "",
    "country": "PL",
    "coord": {
      "lon": 22.83465,
      "lat": 50.909908
    }
  },
  {
    "id": 753188,
    "name": "Zmiennica",
    "state": "",
    "country": "PL",
    "coord": {
      "lon": 21.96596,
      "lat": 49.676521
    }
  },
  {
    "id": 753221,
    "name": "Złota",
    "state": "",
    "country": "PL",
    "coord": {
      "lon": 20.593611,
      "lat": 50.381599
    }
  },
  {
    "id": 753222,
    "name": "Złota",
    "state": "",
    "country": "PL",
    "coord": {
      "lon": 20.69326,
      "lat": 49.880589
    }
  },
  {
    "id": 753276,
    "name": "Zielonka",
    "state": "",
    "country": "PL",
    "coord": {
      "lon": 21.160179,
      "lat": 52.303761
    }
  },
  {
    "id": 753319,
    "name": "Zgłobień",
    "state": "",
    "country": "PL",
    "coord": {
      "lon": 21.8549,
      "lat": 50.012699
    }
  },
  {
    "id": 753392,
    "name": "Żelechów",
    "state": "",
    "country": "PL",
    "coord": {
      "lon": 20.72777,
      "lat": 52.01532
    }
  },
  {
    "id": 753394,
    "name": "Żelechów",
    "state": "",
    "country": "PL",
    "coord": {
      "lon": 21.897209,
      "lat": 51.810509
    }
  },
  {
    "id": 753395,
    "name": "Żelechlinek",
    "state": "",
    "country": "PL",
    "coord": {
      "lon": 20.034599,
      "lat": 51.712139
    }
  },
  {
    "id": 753420,
    "name": "Żegocina",
    "state": "",
    "country": "PL",
    "coord": {
      "lon": 20.41964,
      "lat": 49.81395
    }
  },
  {
    "id": 753531,
    "name": "Zbuczyn",
    "state": "",
    "country": "PL",
    "coord": {
      "lon": 22.43829,
      "lat": 52.089741
    }
  },
  {
    "id": 753549,
    "name": "Zbójna",
    "state": "",
    "country": "PL",
    "coord": {
      "lon": 21.78812,
      "lat": 53.242931
    }
  },
  {
    "id": 753571,
    "name": "Zbarz",
    "state": "",
    "country": "PL",
    "coord": {
      "lon": 20.98333,
      "lat": 52.166672
    }
  },
  {
    "id": 753611,
    "name": "Zawichost",
    "state": "",
    "country": "PL",
    "coord": {
      "lon": 21.85408,
      "lat": 50.80743
    }
  },
  {
    "id": 753702,
    "name": "Zatory",
    "state": "",
    "country": "PL",
    "coord": {
      "lon": 21.182581,
      "lat": 52.599289
    }
  },
  {
    "id": 753732,
    "name": "Zastawa",
    "state": "",
    "country": "PL",
    "coord": {
      "lon": 23.83333,
      "lat": 52.700001
    }
  },
  {
    "id": 753744,
    "name": "Zasanie",
    "state": "",
    "country": "PL",
    "coord": {
      "lon": 22.14476,
      "lat": 50.546841
    }
  },
  {
    "id": 753760,
    "name": "Zarzecze",
    "state": "",
    "country": "PL",
    "coord": {
      "lon": 22.195221,
      "lat": 50.527672
    }
  },
  {
    "id": 753762,
    "name": "Zarzecze",
    "state": "",
    "country": "PL",
    "coord": {
      "lon": 22.537161,
      "lat": 49.986328
    }
  },
  {
    "id": 753776,
    "name": "Zarszyn",
    "state": "",
    "country": "PL",
    "coord": {
      "lon": 22.012831,
      "lat": 49.581779
    }
  },
  {
    "id": 753787,
    "name": "Żarnów",
    "state": "",
    "country": "PL",
    "coord": {
      "lon": 20.174761,
      "lat": 51.246071
    }
  },
  {
    "id": 753854,
    "name": "Zanęcin",
    "state": "",
    "country": "PL",
    "coord": {
      "lon": 21.327551,
      "lat": 52.15456
    }
  },
  {
    "id": 753865,
    "name": "Zamość",
    "state": "",
    "country": "PL",
    "coord": {
      "lon": 23.183331,
      "lat": 50.833328
    }
  },
  {
    "id": 753866,
    "name": "Zamość",
    "state": "",
    "country": "PL",
    "coord": {
      "lon": 23.251961,
      "lat": 50.723141
    }
  },
  {
    "id": 753885,
    "name": "Zamch",
    "state": "",
    "country": "PL",
    "coord": {
      "lon": 23.027861,
      "lat": 50.317131
    }
  },
  {
    "id": 753895,
    "name": "Zambrów",
    "state": "",
    "country": "PL",
    "coord": {
      "lon": 22.243191,
      "lat": 52.9855
    }
  },
  {
    "id": 753910,
    "name": "Załuski",
    "state": "",
    "country": "PL",
    "coord": {
      "lon": 20.528641,
      "lat": 52.51152
    }
  },
  {
    "id": 753911,
    "name": "Załuski",
    "state": "",
    "country": "PL",
    "coord": {
      "lon": 20.937321,
      "lat": 52.173569
    }
  },
  {
    "id": 753943,
    "name": "Zaleszany",
    "state": "",
    "country": "PL",
    "coord": {
      "lon": 21.89069,
      "lat": 50.647991
    }
  },
  {
    "id": 753955,
    "name": "Zalesie Górne",
    "state": "",
    "country": "PL",
    "coord": {
      "lon": 21.036591,
      "lat": 52.027679
    }
  },
  {
    "id": 753982,
    "name": "Zalesie",
    "state": "",
    "country": "PL",
    "coord": {
      "lon": 23.3636,
      "lat": 52.03743
    }
  },
  {
    "id": 754027,
    "name": "Zakrzówek",
    "state": "",
    "country": "PL",
    "coord": {
      "lon": 22.38138,
      "lat": 50.951241
    }
  },
  {
    "id": 754029,
    "name": "Zakrzew",
    "state": "",
    "country": "PL",
    "coord": {
      "lon": 21.001051,
      "lat": 51.440948
    }
  },
  {
    "id": 754066,
    "name": "Zakrzew",
    "state": "",
    "country": "PL",
    "coord": {
      "lon": 22.59115,
      "lat": 50.890041
    }
  },
  {
    "id": 754069,
    "name": "Zakroczym",
    "state": "",
    "country": "PL",
    "coord": {
      "lon": 20.61207,
      "lat": 52.43351
    }
  },
  {
    "id": 754090,
    "name": "Zaklików",
    "state": "",
    "country": "PL",
    "coord": {
      "lon": 22.102261,
      "lat": 50.75769
    }
  },
  {
    "id": 754092,
    "name": "Zakliczyn",
    "state": "",
    "country": "PL",
    "coord": {
      "lon": 20.809349,
      "lat": 49.855888
    }
  },
  {
    "id": 754148,
    "name": "Zagrody",
    "state": "",
    "country": "PL",
    "coord": {
      "lon": 22.83658,
      "lat": 49.9519
    }
  },
  {
    "id": 754174,
    "name": "Zagórzyce",
    "state": "",
    "country": "PL",
    "coord": {
      "lon": 21.675171,
      "lat": 50.016899
    }
  },
  {
    "id": 754195,
    "name": "Zagórz",
    "state": "",
    "country": "PL",
    "coord": {
      "lon": 22.267059,
      "lat": 49.514568
    }
  },
  {
    "id": 754210,
    "name": "Zagnańsk",
    "state": "",
    "country": "PL",
    "coord": {
      "lon": 20.663139,
      "lat": 50.98037
    }
  },
  {
    "id": 754233,
    "name": "Zadział",
    "state": "",
    "country": "PL",
    "coord": {
      "lon": 22.466669,
      "lat": 49.383331
    }
  },
  {
    "id": 754329,
    "name": "Żabno",
    "state": "",
    "country": "PL",
    "coord": {
      "lon": 20.88615,
      "lat": 50.133339
    }
  },
  {
    "id": 754331,
    "name": "Zabłudów",
    "state": "",
    "country": "PL",
    "coord": {
      "lon": 23.33831,
      "lat": 53.01442
    }
  },
  {
    "id": 754351,
    "name": "Ząbki",
    "state": "",
    "country": "PL",
    "coord": {
      "lon": 21.105391,
      "lat": 52.292709
    }
  },
  {
    "id": 754364,
    "name": "Zabierzów Bocheński",
    "state": "",
    "country": "PL",
    "coord": {
      "lon": 20.31896,
      "lat": 50.068211
    }
  },
  {
    "id": 754367,
    "name": "Żabieniec",
    "state": "",
    "country": "PL",
    "coord": {
      "lon": 21.04817,
      "lat": 52.058559
    }
  },
  {
    "id": 754386,
    "name": "Żabia Wola",
    "state": "",
    "country": "PL",
    "coord": {
      "lon": 20.69112,
      "lat": 52.031689
    }
  },
  {
    "id": 754451,
    "name": "Wyszogród",
    "state": "",
    "country": "PL",
    "coord": {
      "lon": 20.190809,
      "lat": 52.389881
    }
  },
  {
    "id": 754454,
    "name": "Wyszków",
    "state": "",
    "country": "PL",
    "coord": {
      "lon": 21.458401,
      "lat": 52.592781
    }
  },
  {
    "id": 754456,
    "name": "Wyszki",
    "state": "",
    "country": "PL",
    "coord": {
      "lon": 22.98119,
      "lat": 52.84129
    }
  },
  {
    "id": 754479,
    "name": "Wysokie Mazowieckie",
    "state": "",
    "country": "PL",
    "coord": {
      "lon": 22.51712,
      "lat": 52.916611
    }
  },
  {
    "id": 754493,
    "name": "Wysokie",
    "state": "",
    "country": "PL",
    "coord": {
      "lon": 22.666,
      "lat": 50.910931
    }
  },
  {
    "id": 754499,
    "name": "Wysoka Strzyżowska",
    "state": "",
    "country": "PL",
    "coord": {
      "lon": 21.74074,
      "lat": 49.830559
    }
  },
  {
    "id": 754508,
    "name": "Wysoka Głogowska",
    "state": "",
    "country": "PL",
    "coord": {
      "lon": 22.02124,
      "lat": 50.160191
    }
  },
  {
    "id": 754509,
    "name": "Wysoka",
    "state": "",
    "country": "PL",
    "coord": {
      "lon": 22.260019,
      "lat": 50.044739
    }
  },
  {
    "id": 754520,
    "name": "Wyśmierzyce",
    "state": "",
    "country": "PL",
    "coord": {
      "lon": 20.81394,
      "lat": 51.624939
    }
  },
  {
    "id": 754652,
    "name": "Wydminy",
    "state": "",
    "country": "PL",
    "coord": {
      "lon": 22.032391,
      "lat": 53.981941
    }
  },
  {
    "id": 754800,
    "name": "Wołomin",
    "state": "",
    "country": "PL",
    "coord": {
      "lon": 21.242069,
      "lat": 52.340061
    }
  },
  {
    "id": 754847,
    "name": "Wólka Tanewska",
    "state": "",
    "country": "PL",
    "coord": {
      "lon": 22.261129,
      "lat": 50.50005
    }
  },
  {
    "id": 754886,
    "name": "Wólka Podleśna",
    "state": "",
    "country": "PL",
    "coord": {
      "lon": 22.112129,
      "lat": 50.117851
    }
  },
  {
    "id": 754897,
    "name": "Wólka Pełkińska",
    "state": "",
    "country": "PL",
    "coord": {
      "lon": 22.623421,
      "lat": 50.095531
    }
  },
  {
    "id": 754912,
    "name": "Wólka Niedźwiedzka",
    "state": "",
    "country": "PL",
    "coord": {
      "lon": 22.188259,
      "lat": 50.24226
    }
  },
  {
    "id": 754946,
    "name": "Wólka Kożuchowska",
    "state": "",
    "country": "PL",
    "coord": {
      "lon": 20.83959,
      "lat": 51.630581
    }
  },
  {
    "id": 755090,
    "name": "Wola Żarczycka",
    "state": "",
    "country": "PL",
    "coord": {
      "lon": 22.250231,
      "lat": 50.291199
    }
  },
  {
    "id": 755098,
    "name": "Wola Zabierzowska",
    "state": "",
    "country": "PL",
    "coord": {
      "lon": 20.33217,
      "lat": 50.072571
    }
  },
  {
    "id": 755118,
    "name": "Wola Uhruska",
    "state": "",
    "country": "PL",
    "coord": {
      "lon": 23.62627,
      "lat": 51.321388
    }
  },
  {
    "id": 755143,
    "name": "Wola Sernicka",
    "state": "",
    "country": "PL",
    "coord": {
      "lon": 22.68351,
      "lat": 51.44978
    }
  },
  {
    "id": 755155,
    "name": "Wola Rębkowska",
    "state": "",
    "country": "PL",
    "coord": {
      "lon": 21.55818,
      "lat": 51.90181
    }
  },
  {
    "id": 755200,
    "name": "Wolanów",
    "state": "",
    "country": "PL",
    "coord": {
      "lon": 20.97702,
      "lat": 51.380299
    }
  },
  {
    "id": 755270,
    "name": "Wola Karczewska",
    "state": "",
    "country": "PL",
    "coord": {
      "lon": 21.39344,
      "lat": 52.126572
    }
  },
  {
    "id": 755276,
    "name": "Wola Jachowa",
    "state": "",
    "country": "PL",
    "coord": {
      "lon": 20.858141,
      "lat": 50.845242
    }
  },
  {
    "id": 755303,
    "name": "Wola Dębińska",
    "state": "",
    "country": "PL",
    "coord": {
      "lon": 20.687771,
      "lat": 49.98214
    }
  },
  {
    "id": 755327,
    "name": "Wola Batorska",
    "state": "",
    "country": "PL",
    "coord": {
      "lon": 20.266171,
      "lat": 50.05262
    }
  },
  {
    "id": 755369,
    "name": "Wojsławice",
    "state": "",
    "country": "PL",
    "coord": {
      "lon": 23.546021,
      "lat": 50.919159
    }
  },
  {
    "id": 755390,
    "name": "Wojnicz",
    "state": "",
    "country": "PL",
    "coord": {
      "lon": 20.837851,
      "lat": 49.958
    }
  },
  {
    "id": 755412,
    "name": "Wojcieszków",
    "state": "",
    "country": "PL",
    "coord": {
      "lon": 22.315889,
      "lat": 51.769218
    }
  },
  {
    "id": 755421,
    "name": "Wojciechowice",
    "state": "",
    "country": "PL",
    "coord": {
      "lon": 21.58942,
      "lat": 50.842258
    }
  },
  {
    "id": 755427,
    "name": "Wojciechów",
    "state": "",
    "country": "PL",
    "coord": {
      "lon": 22.24551,
      "lat": 51.235432
    }
  },
  {
    "id": 755435,
    "name": "Wojaszówka",
    "state": "",
    "country": "PL",
    "coord": {
      "lon": 21.67079,
      "lat": 49.777771
    }
  },
  {
    "id": 755436,
    "name": "Wojakowa",
    "state": "",
    "country": "PL",
    "coord": {
      "lon": 20.5616,
      "lat": 49.80365
    }
  },
  {
    "id": 755438,
    "name": "Wohyń",
    "state": "",
    "country": "PL",
    "coord": {
      "lon": 22.78582,
      "lat": 51.75642
    }
  },
  {
    "id": 755439,
    "name": "Wodzisław",
    "state": "",
    "country": "PL",
    "coord": {
      "lon": 20.1915,
      "lat": 50.52047
    }
  },
  {
    "id": 755442,
    "name": "Wodynie",
    "state": "",
    "country": "PL",
    "coord": {
      "lon": 21.95575,
      "lat": 52.040401
    }
  },
  {
    "id": 755474,
    "name": "Włodawa",
    "state": "",
    "country": "PL",
    "coord": {
      "lon": 23.549999,
      "lat": 51.549999
    }
  },
  {
    "id": 755502,
    "name": "Wizna",
    "state": "",
    "country": "PL",
    "coord": {
      "lon": 22.38241,
      "lat": 53.195179
    }
  },
  {
    "id": 755551,
    "name": "Wisznice",
    "state": "",
    "country": "PL",
    "coord": {
      "lon": 23.208361,
      "lat": 51.789242
    }
  },
  {
    "id": 755571,
    "name": "Wiśniowa",
    "state": "",
    "country": "PL",
    "coord": {
      "lon": 21.655081,
      "lat": 49.868969
    }
  },
  {
    "id": 755572,
    "name": "Wiśniowa",
    "state": "",
    "country": "PL",
    "coord": {
      "lon": 20.115021,
      "lat": 49.7878
    }
  },
  {
    "id": 755582,
    "name": "Wiśniew",
    "state": "",
    "country": "PL",
    "coord": {
      "lon": 22.293921,
      "lat": 52.072651
    }
  },
  {
    "id": 755593,
    "name": "Wiślica",
    "state": "",
    "country": "PL",
    "coord": {
      "lon": 20.674379,
      "lat": 50.348911
    }
  },
  {
    "id": 755594,
    "name": "Wiskitki",
    "state": "",
    "country": "PL",
    "coord": {
      "lon": 20.387079,
      "lat": 52.08831
    }
  },
  {
    "id": 755609,
    "name": "Winnica",
    "state": "",
    "country": "PL",
    "coord": {
      "lon": 20.941139,
      "lat": 52.643059
    }
  },
  {
    "id": 755670,
    "name": "Wilków",
    "state": "",
    "country": "PL",
    "coord": {
      "lon": 21.87756,
      "lat": 51.262241
    }
  },
  {
    "id": 755675,
    "name": "Wilkołaz",
    "state": "",
    "country": "PL",
    "coord": {
      "lon": 22.35014,
      "lat": 51.014729
    }
  },
  {
    "id": 755692,
    "name": "Wilga",
    "state": "",
    "country": "PL",
    "coord": {
      "lon": 21.37751,
      "lat": 51.852112
    }
  },
  {
    "id": 755697,
    "name": "Wilczyce",
    "state": "",
    "country": "PL",
    "coord": {
      "lon": 21.657829,
      "lat": 50.746941
    }
  },
  {
    "id": 755722,
    "name": "Wilcza",
    "state": "",
    "country": "PL",
    "coord": {
      "lon": 22.788731,
      "lat": 49.792351
    }
  },
  {
    "id": 755754,
    "name": "Wietrzychowice",
    "state": "",
    "country": "PL",
    "coord": {
      "lon": 20.76502,
      "lat": 50.190971
    }
  },
  {
    "id": 755775,
    "name": "Wierzchosławice",
    "state": "",
    "country": "PL",
    "coord": {
      "lon": 20.85677,
      "lat": 50.02478
    }
  },
  {
    "id": 755792,
    "name": "Wierzbno",
    "state": "",
    "country": "PL",
    "coord": {
      "lon": 21.85902,
      "lat": 52.310081
    }
  },
  {
    "id": 755797,
    "name": "Wierzbna",
    "state": "",
    "country": "PL",
    "coord": {
      "lon": 22.60128,
      "lat": 50.033112
    }
  },
  {
    "id": 755810,
    "name": "Wierzbica",
    "state": "",
    "country": "PL",
    "coord": {
      "lon": 21.08259,
      "lat": 51.249401
    }
  },
  {
    "id": 755823,
    "name": "Wierzawice",
    "state": "",
    "country": "PL",
    "coord": {
      "lon": 22.450899,
      "lat": 50.236229
    }
  },
  {
    "id": 755848,
    "name": "Wieniawa",
    "state": "",
    "country": "PL",
    "coord": {
      "lon": 20.794889,
      "lat": 51.36171
    }
  },
  {
    "id": 755855,
    "name": "Wielopole Skrzyńskie",
    "state": "",
    "country": "PL",
    "coord": {
      "lon": 21.61491,
      "lat": 49.945641
    }
  },
  {
    "id": 755873,
    "name": "Wielkie Oczy",
    "state": "",
    "country": "PL",
    "coord": {
      "lon": 23.16407,
      "lat": 50.023571
    }
  },
  {
    "id": 755883,
    "name": "Wielka Wieś",
    "state": "",
    "country": "PL",
    "coord": {
      "lon": 20.966551,
      "lat": 51.071072
    }
  },
  {
    "id": 755885,
    "name": "Wielka Wieś",
    "state": "",
    "country": "PL",
    "coord": {
      "lon": 20.82304,
      "lat": 49.93631
    }
  },
  {
    "id": 755886,
    "name": "Wieliszew",
    "state": "",
    "country": "PL",
    "coord": {
      "lon": 20.968269,
      "lat": 52.451302
    }
  },
  {
    "id": 755889,
    "name": "Wieliczka",
    "state": "",
    "country": "PL",
    "coord": {
      "lon": 20.06473,
      "lat": 49.987381
    }
  },
  {
    "id": 755907,
    "name": "Wielbark",
    "state": "",
    "country": "PL",
    "coord": {
      "lon": 20.946289,
      "lat": 53.398579
    }
  },
  {
    "id": 755919,
    "name": "Wieczfnia Kościelna",
    "state": "",
    "country": "PL",
    "coord": {
      "lon": 20.47637,
      "lat": 53.195339
    }
  },
  {
    "id": 755963,
    "name": "Wiązownica",
    "state": "",
    "country": "PL",
    "coord": {
      "lon": 22.70668,
      "lat": 50.080662
    }
  },
  {
    "id": 756010,
    "name": "Wesoła",
    "state": "",
    "country": "PL",
    "coord": {
      "lon": 22.10029,
      "lat": 49.79977
    }
  },
  {
    "id": 756024,
    "name": "Weremień",
    "state": "",
    "country": "PL",
    "coord": {
      "lon": 22.32937,
      "lat": 49.453949
    }
  },
  {
    "id": 756028,
    "name": "Werbkowice",
    "state": "",
    "country": "PL",
    "coord": {
      "lon": 23.764111,
      "lat": 50.753731
    }
  },
  {
    "id": 756037,
    "name": "Wejsuny Małe",
    "state": "",
    "country": "PL",
    "coord": {
      "lon": 21.61128,
      "lat": 53.679878
    }
  },
  {
    "id": 756045,
    "name": "Węgrzce Wielkie",
    "state": "",
    "country": "PL",
    "coord": {
      "lon": 20.110821,
      "lat": 50.014912
    }
  },
  {
    "id": 756046,
    "name": "Węgrów",
    "state": "",
    "country": "PL",
    "coord": {
      "lon": 22.01634,
      "lat": 52.39954
    }
  },
  {
    "id": 756048,
    "name": "Węgorzewo",
    "state": "",
    "country": "PL",
    "coord": {
      "lon": 21.7372,
      "lat": 54.215672
    }
  },
  {
    "id": 756053,
    "name": "Węglówka",
    "state": "",
    "country": "PL",
    "coord": {
      "lon": 20.085751,
      "lat": 49.734241
    }
  },
  {
    "id": 756084,
    "name": "Wawrzeńczyce",
    "state": "",
    "country": "PL",
    "coord": {
      "lon": 20.31612,
      "lat": 50.110119
    }
  },
  {
    "id": 756091,
    "name": "Wąwolnica",
    "state": "",
    "country": "PL",
    "coord": {
      "lon": 22.146811,
      "lat": 51.29467
    }
  },
  {
    "id": 756106,
    "name": "Wąsosz",
    "state": "",
    "country": "PL",
    "coord": {
      "lon": 22.319151,
      "lat": 53.522091
    }
  },
  {
    "id": 756109,
    "name": "Waśniów",
    "state": "",
    "country": "PL",
    "coord": {
      "lon": 21.223009,
      "lat": 50.899139
    }
  },
  {
    "id": 756120,
    "name": "Wasilków",
    "state": "",
    "country": "PL",
    "coord": {
      "lon": 23.20776,
      "lat": 53.199089
    }
  },
  {
    "id": 756135,
    "name": "Warsaw",
    "state": "",
    "country": "PL",
    "coord": {
      "lon": 21.01178,
      "lat": 52.229771
    }
  },
  {
    "id": 756151,
    "name": "Warka",
    "state": "",
    "country": "PL",
    "coord": {
      "lon": 21.19091,
      "lat": 51.784302
    }
  },
  {
    "id": 756197,
    "name": "Jodłówka-Wałki",
    "state": "",
    "country": "PL",
    "coord": {
      "lon": 21.13332,
      "lat": 50.049919
    }
  },
  {
    "id": 756227,
    "name": "Waksmund",
    "state": "",
    "country": "PL",
    "coord": {
      "lon": 20.07563,
      "lat": 49.482071
    }
  },
  {
    "id": 756246,
    "name": "Wadowice Górne",
    "state": "",
    "country": "PL",
    "coord": {
      "lon": 21.302151,
      "lat": 50.263119
    }
  },
  {
    "id": 756258,
    "name": "Wąchock",
    "state": "",
    "country": "PL",
    "coord": {
      "lon": 21.01243,
      "lat": 51.07391
    }
  },
  {
    "id": 756280,
    "name": "Ustrzyki Dolne",
    "state": "",
    "country": "PL",
    "coord": {
      "lon": 22.593809,
      "lat": 49.430401
    }
  },
  {
    "id": 756295,
    "name": "Uścimów Stary",
    "state": "",
    "country": "PL",
    "coord": {
      "lon": 22.95516,
      "lat": 51.46962
    }
  },
  {
    "id": 756300,
    "name": "Uście Ruskie",
    "state": "",
    "country": "PL",
    "coord": {
      "lon": 21.133329,
      "lat": 49.51667
    }
  },
  {
    "id": 756302,
    "name": "Uście Gorlickie",
    "state": "",
    "country": "PL",
    "coord": {
      "lon": 21.13821,
      "lat": 49.521919
    }
  },
  {
    "id": 756311,
    "name": "Urzuty",
    "state": "",
    "country": "PL",
    "coord": {
      "lon": 20.6682,
      "lat": 50.21228
    }
  },
  {
    "id": 756313,
    "name": "Urzejowice",
    "state": "",
    "country": "PL",
    "coord": {
      "lon": 22.461889,
      "lat": 50.011822
    }
  },
  {
    "id": 756315,
    "name": "Urzędów",
    "state": "",
    "country": "PL",
    "coord": {
      "lon": 22.142599,
      "lat": 50.993229
    }
  },
  {
    "id": 756316,
    "name": "Urszulin",
    "state": "",
    "country": "PL",
    "coord": {
      "lon": 23.194799,
      "lat": 51.393902
    }
  },
  {
    "id": 756349,
    "name": "Ulica Starowiejska",
    "state": "",
    "country": "PL",
    "coord": {
      "lon": 22.297779,
      "lat": 52.165588
    }
  },
  {
    "id": 756351,
    "name": "Ulhówek",
    "state": "",
    "country": "PL",
    "coord": {
      "lon": 23.799561,
      "lat": 50.449692
    }
  },
  {
    "id": 756354,
    "name": "Ułęż",
    "state": "",
    "country": "PL",
    "coord": {
      "lon": 22.10741,
      "lat": 51.591949
    }
  },
  {
    "id": 756377,
    "name": "Ulanów",
    "state": "",
    "country": "PL",
    "coord": {
      "lon": 22.26362,
      "lat": 50.490311
    }
  },
  {
    "id": 756406,
    "name": "Uherce Mineralne",
    "state": "",
    "country": "PL",
    "coord": {
      "lon": 22.398291,
      "lat": 49.46455
    }
  },
  {
    "id": 756438,
    "name": "Tyszowce",
    "state": "",
    "country": "PL",
    "coord": {
      "lon": 23.69927,
      "lat": 50.616989
    }
  },
  {
    "id": 756456,
    "name": "Tyrawa Wołoska",
    "state": "",
    "country": "PL",
    "coord": {
      "lon": 22.369881,
      "lat": 49.577438
    }
  },
  {
    "id": 756474,
    "name": "Tymbark",
    "state": "",
    "country": "PL",
    "coord": {
      "lon": 20.32539,
      "lat": 49.728588
    }
  },
  {
    "id": 756484,
    "name": "Tykocin",
    "state": "",
    "country": "PL",
    "coord": {
      "lon": 22.77457,
      "lat": 53.205669
    }
  },
  {
    "id": 756485,
    "name": "Tyczyn",
    "state": "",
    "country": "PL",
    "coord": {
      "lon": 22.033979,
      "lat": 49.96384
    }
  },
  {
    "id": 756507,
    "name": "Tworki",
    "state": "",
    "country": "PL",
    "coord": {
      "lon": 20.81978,
      "lat": 52.173828
    }
  },
  {
    "id": 756510,
    "name": "Twierdza",
    "state": "",
    "country": "PL",
    "coord": {
      "lon": 21.62916,
      "lat": 49.833889
    }
  },
  {
    "id": 756532,
    "name": "Turze Pole",
    "state": "",
    "country": "PL",
    "coord": {
      "lon": 22.004761,
      "lat": 49.663288
    }
  },
  {
    "id": 756567,
    "name": "Turośń Kościelna",
    "state": "",
    "country": "PL",
    "coord": {
      "lon": 23.055321,
      "lat": 53.014629
    }
  },
  {
    "id": 756577,
    "name": "Turobin",
    "state": "",
    "country": "PL",
    "coord": {
      "lon": 22.742729,
      "lat": 50.823669
    }
  },
  {
    "id": 756627,
    "name": "Tuczna",
    "state": "",
    "country": "PL",
    "coord": {
      "lon": 23.4252,
      "lat": 51.88028
    }
  },
  {
    "id": 756629,
    "name": "Tuczępy",
    "state": "",
    "country": "PL",
    "coord": {
      "lon": 20.991871,
      "lat": 50.516762
    }
  },
  {
    "id": 756634,
    "name": "Tuchów",
    "state": "",
    "country": "PL",
    "coord": {
      "lon": 21.05407,
      "lat": 49.894852
    }
  },
  {
    "id": 756648,
    "name": "Trzydnik Duży",
    "state": "",
    "country": "PL",
    "coord": {
      "lon": 22.133591,
      "lat": 50.848869
    }
  },
  {
    "id": 756679,
    "name": "Trzemeśnia",
    "state": "",
    "country": "PL",
    "coord": {
      "lon": 20.02207,
      "lat": 49.827518
    }
  },
  {
    "id": 756688,
    "name": "Trzebownisko",
    "state": "",
    "country": "PL",
    "coord": {
      "lon": 22.037121,
      "lat": 50.078289
    }
  },
  {
    "id": 756692,
    "name": "Trzebieszów",
    "state": "",
    "country": "PL",
    "coord": {
      "lon": 22.555019,
      "lat": 51.990059
    }
  },
  {
    "id": 756709,
    "name": "Trzcinica",
    "state": "",
    "country": "PL",
    "coord": {
      "lon": 21.4175,
      "lat": 49.743011
    }
  },
  {
    "id": 756734,
    "name": "Trzciana",
    "state": "",
    "country": "PL",
    "coord": {
      "lon": 21.33725,
      "lat": 50.307709
    }
  },
  {
    "id": 756735,
    "name": "Trzciana",
    "state": "",
    "country": "PL",
    "coord": {
      "lon": 21.838499,
      "lat": 50.071899
    }
  },
  {
    "id": 756736,
    "name": "Trzciana",
    "state": "",
    "country": "PL",
    "coord": {
      "lon": 20.374149,
      "lat": 49.844849
    }
  },
  {
    "id": 756748,
    "name": "Tryńcza",
    "state": "",
    "country": "PL",
    "coord": {
      "lon": 22.550079,
      "lat": 50.16087
    }
  },
  {
    "id": 756769,
    "name": "Truskaw",
    "state": "",
    "country": "PL",
    "coord": {
      "lon": 20.78244,
      "lat": 52.301239
    }
  },
  {
    "id": 756771,
    "name": "Troszyn",
    "state": "",
    "country": "PL",
    "coord": {
      "lon": 21.730829,
      "lat": 53.031151
    }
  },
  {
    "id": 756794,
    "name": "Trojanów",
    "state": "",
    "country": "PL",
    "coord": {
      "lon": 21.811119,
      "lat": 51.692249
    }
  },
  {
    "id": 756819,
    "name": "Trawniki",
    "state": "",
    "country": "PL",
    "coord": {
      "lon": 22.998159,
      "lat": 51.13633
    }
  },
  {
    "id": 756824,
    "name": "Trablice",
    "state": "",
    "country": "PL",
    "coord": {
      "lon": 21.128771,
      "lat": 51.352489
    }
  },
  {
    "id": 756825,
    "name": "Trąbki",
    "state": "",
    "country": "PL",
    "coord": {
      "lon": 21.599291,
      "lat": 51.947922
    }
  },
  {
    "id": 756826,
    "name": "Trąbki",
    "state": "",
    "country": "PL",
    "coord": {
      "lon": 20.142401,
      "lat": 49.962261
    }
  },
  {
    "id": 756867,
    "name": "Tomaszów Mazowiecki",
    "state": "",
    "country": "PL",
    "coord": {
      "lon": 20.008551,
      "lat": 51.531311
    }
  },
  {
    "id": 756868,
    "name": "Tomaszów Lubelski",
    "state": "",
    "country": "PL",
    "coord": {
      "lon": 23.416161,
      "lat": 50.44767
    }
  },
  {
    "id": 756919,
    "name": "Tłuszcz",
    "state": "",
    "country": "PL",
    "coord": {
      "lon": 21.43561,
      "lat": 52.43058
    }
  },
  {
    "id": 756933,
    "name": "Tereszpol",
    "state": "",
    "country": "PL",
    "coord": {
      "lon": 22.879801,
      "lat": 50.583729
    }
  },
  {
    "id": 756937,
    "name": "Tereszpol",
    "state": "",
    "country": "PL",
    "coord": {
      "lon": 22.933331,
      "lat": 50.566669
    }
  },
  {
    "id": 756938,
    "name": "Terespol",
    "state": "",
    "country": "PL",
    "coord": {
      "lon": 23.61614,
      "lat": 52.0755
    }
  },
  {
    "id": 756939,
    "name": "Teresin",
    "state": "",
    "country": "PL",
    "coord": {
      "lon": 20.416719,
      "lat": 52.198872
    }
  },
  {
    "id": 756980,
    "name": "Telatyn",
    "state": "",
    "country": "PL",
    "coord": {
      "lon": 23.83956,
      "lat": 50.527119
    }
  },
  {
    "id": 756992,
    "name": "Tczów",
    "state": "",
    "country": "PL",
    "coord": {
      "lon": 21.44677,
      "lat": 51.326
    }
  },
  {
    "id": 757020,
    "name": "Tarnowiec",
    "state": "",
    "country": "PL",
    "coord": {
      "lon": 20.986549,
      "lat": 49.98164
    }
  },
  {
    "id": 757021,
    "name": "Tarnowiec",
    "state": "",
    "country": "PL",
    "coord": {
      "lon": 21.57663,
      "lat": 49.731079
    }
  },
  {
    "id": 757026,
    "name": "Tarnów",
    "state": "",
    "country": "PL",
    "coord": {
      "lon": 20.98698,
      "lat": 50.013809
    }
  },
  {
    "id": 757029,
    "name": "Tarnogród",
    "state": "",
    "country": "PL",
    "coord": {
      "lon": 22.741739,
      "lat": 50.360901
    }
  },
  {
    "id": 757033,
    "name": "Tarnobrzeg",
    "state": "",
    "country": "PL",
    "coord": {
      "lon": 21.679371,
      "lat": 50.57304
    }
  },
  {
    "id": 757044,
    "name": "Tarnawatka",
    "state": "",
    "country": "PL",
    "coord": {
      "lon": 23.395901,
      "lat": 50.53154
    }
  },
  {
    "id": 757050,
    "name": "Tarłów",
    "state": "",
    "country": "PL",
    "coord": {
      "lon": 21.714741,
      "lat": 51.001598
    }
  },
  {
    "id": 757062,
    "name": "Targowisko",
    "state": "",
    "country": "PL",
    "coord": {
      "lon": 20.896231,
      "lat": 50.138401
    }
  },
  {
    "id": 757063,
    "name": "Targowisko",
    "state": "",
    "country": "PL",
    "coord": {
      "lon": 20.293461,
      "lat": 49.98473
    }
  },
  {
    "id": 757071,
    "name": "Tarczyn",
    "state": "",
    "country": "PL",
    "coord": {
      "lon": 20.833941,
      "lat": 51.981972
    }
  },
  {
    "id": 757109,
    "name": "Tajęcina",
    "state": "",
    "country": "PL",
    "coord": {
      "lon": 22.01111,
      "lat": 50.124649
    }
  },
  {
    "id": 757135,
    "name": "Szynwałd",
    "state": "",
    "country": "PL",
    "coord": {
      "lon": 21.122931,
      "lat": 49.96767
    }
  },
  {
    "id": 757152,
    "name": "Szymany",
    "state": "",
    "country": "PL",
    "coord": {
      "lon": 20.96357,
      "lat": 53.48465
    }
  },
  {
    "id": 757174,
    "name": "Szydłowo",
    "state": "",
    "country": "PL",
    "coord": {
      "lon": 20.45071,
      "lat": 53.08062
    }
  },
  {
    "id": 757178,
    "name": "Szydłowiec",
    "state": "",
    "country": "PL",
    "coord": {
      "lon": 20.861059,
      "lat": 51.22823
    }
  },
  {
    "id": 757182,
    "name": "Szydłów",
    "state": "",
    "country": "PL",
    "coord": {
      "lon": 21.0068,
      "lat": 50.591141
    }
  },
  {
    "id": 757214,
    "name": "Szumowo",
    "state": "",
    "country": "PL",
    "coord": {
      "lon": 22.08449,
      "lat": 52.918839
    }
  },
  {
    "id": 757240,
    "name": "Szreńsk",
    "state": "",
    "country": "PL",
    "coord": {
      "lon": 20.12009,
      "lat": 53.012772
    }
  },
  {
    "id": 757322,
    "name": "Szerzyny",
    "state": "",
    "country": "PL",
    "coord": {
      "lon": 21.2467,
      "lat": 49.809189
    }
  },
  {
    "id": 757335,
    "name": "Szepietowo",
    "state": "",
    "country": "PL",
    "coord": {
      "lon": 22.543921,
      "lat": 52.870319
    }
  },
  {
    "id": 757343,
    "name": "Szelków",
    "state": "",
    "country": "PL",
    "coord": {
      "lon": 21.21769,
      "lat": 52.834869
    }
  },
  {
    "id": 757357,
    "name": "Szczytno",
    "state": "",
    "country": "PL",
    "coord": {
      "lon": 20.987471,
      "lat": 53.562592
    }
  },
  {
    "id": 757376,
    "name": "Szczurowa",
    "state": "",
    "country": "PL",
    "coord": {
      "lon": 20.636101,
      "lat": 50.119148
    }
  },
  {
    "id": 757386,
    "name": "Szczuczyn",
    "state": "",
    "country": "PL",
    "coord": {
      "lon": 22.285339,
      "lat": 53.563301
    }
  },
  {
    "id": 757388,
    "name": "Szczucin",
    "state": "",
    "country": "PL",
    "coord": {
      "lon": 21.07444,
      "lat": 50.30957
    }
  },
  {
    "id": 757452,
    "name": "Szczebrzeszyn",
    "state": "",
    "country": "PL",
    "coord": {
      "lon": 22.97954,
      "lat": 50.694988
    }
  },
  {
    "id": 757460,
    "name": "Szczawnica Niżna",
    "state": "",
    "country": "PL",
    "coord": {
      "lon": 20.48333,
      "lat": 49.433331
    }
  },
  {
    "id": 757461,
    "name": "Szczawnica",
    "state": "",
    "country": "PL",
    "coord": {
      "lon": 20.484871,
      "lat": 49.42437
    }
  },
  {
    "id": 757472,
    "name": "Szastarka",
    "state": "",
    "country": "PL",
    "coord": {
      "lon": 22.3346,
      "lat": 50.854939
    }
  },
  {
    "id": 757479,
    "name": "Szarów",
    "state": "",
    "country": "PL",
    "coord": {
      "lon": 20.2696,
      "lat": 49.995049
    }
  },
  {
    "id": 757512,
    "name": "Szaflary",
    "state": "",
    "country": "PL",
    "coord": {
      "lon": 20.02713,
      "lat": 49.426552
    }
  },
  {
    "id": 757531,
    "name": "Sypniewo",
    "state": "",
    "country": "PL",
    "coord": {
      "lon": 21.307301,
      "lat": 53.005798
    }
  },
  {
    "id": 757585,
    "name": "Świlcza",
    "state": "",
    "country": "PL",
    "coord": {
      "lon": 21.89798,
      "lat": 50.071789
    }
  },
  {
    "id": 757608,
    "name": "Swiętajno",
    "state": "",
    "country": "PL",
    "coord": {
      "lon": 22.3183,
      "lat": 54.001511
    }
  },
  {
    "id": 757609,
    "name": "Swietajno",
    "state": "",
    "country": "PL",
    "coord": {
      "lon": 22.33297,
      "lat": 54.038921
    }
  },
  {
    "id": 757610,
    "name": "Świętajno",
    "state": "",
    "country": "PL",
    "coord": {
      "lon": 21.21546,
      "lat": 53.566921
    }
  },
  {
    "id": 757690,
    "name": "Świdnik Mały",
    "state": "",
    "country": "PL",
    "coord": {
      "lon": 22.6805,
      "lat": 51.256008
    }
  },
  {
    "id": 757692,
    "name": "Świdnik",
    "state": "",
    "country": "PL",
    "coord": {
      "lon": 22.696211,
      "lat": 51.218979
    }
  },
  {
    "id": 757718,
    "name": "Suwałki",
    "state": "",
    "country": "PL",
    "coord": {
      "lon": 22.93087,
      "lat": 54.111752
    }
  },
  {
    "id": 757735,
    "name": "Susiec",
    "state": "",
    "country": "PL",
    "coord": {
      "lon": 23.19626,
      "lat": 50.419731
    }
  },
  {
    "id": 757751,
    "name": "Suraż",
    "state": "",
    "country": "PL",
    "coord": {
      "lon": 22.95653,
      "lat": 52.949081
    }
  },
  {
    "id": 757758,
    "name": "Supraśl",
    "state": "",
    "country": "PL",
    "coord": {
      "lon": 23.33934,
      "lat": 53.205261
    }
  },
  {
    "id": 757773,
    "name": "Sułów",
    "state": "",
    "country": "PL",
    "coord": {
      "lon": 22.360609,
      "lat": 50.906609
    }
  },
  {
    "id": 757774,
    "name": "Sułów",
    "state": "",
    "country": "PL",
    "coord": {
      "lon": 22.955931,
      "lat": 50.770988
    }
  },
  {
    "id": 757782,
    "name": "Sułkowice",
    "state": "",
    "country": "PL",
    "coord": {
      "lon": 21.089291,
      "lat": 51.9231
    }
  },
  {
    "id": 757809,
    "name": "Sulejówek",
    "state": "",
    "country": "PL",
    "coord": {
      "lon": 21.26902,
      "lat": 52.252209
    }
  },
  {
    "id": 757848,
    "name": "Suchożebry",
    "state": "",
    "country": "PL",
    "coord": {
      "lon": 22.25289,
      "lat": 52.25948
    }
  },
  {
    "id": 757850,
    "name": "Suchowola",
    "state": "",
    "country": "PL",
    "coord": {
      "lon": 23.105961,
      "lat": 53.57753
    }
  },
  {
    "id": 757886,
    "name": "Suchedniów",
    "state": "",
    "country": "PL",
    "coord": {
      "lon": 20.82922,
      "lat": 51.04776
    }
  },
  {
    "id": 757894,
    "name": "Sucha",
    "state": "",
    "country": "PL",
    "coord": {
      "lon": 20.94887,
      "lat": 51.619991
    }
  },
  {
    "id": 757912,
    "name": "Stupsk",
    "state": "",
    "country": "PL",
    "coord": {
      "lon": 20.4368,
      "lat": 53.022579
    }
  },
  {
    "id": 757948,
    "name": "Stubno",
    "state": "",
    "country": "PL",
    "coord": {
      "lon": 22.95602,
      "lat": 49.89806
    }
  },
  {
    "id": 757953,
    "name": "Strzyżowice",
    "state": "",
    "country": "PL",
    "coord": {
      "lon": 22.44018,
      "lat": 51.048302
    }
  },
  {
    "id": 757957,
    "name": "Strzyżów",
    "state": "",
    "country": "PL",
    "coord": {
      "lon": 21.79413,
      "lat": 49.870739
    }
  },
  {
    "id": 757993,
    "name": "Strzegowo",
    "state": "",
    "country": "PL",
    "coord": {
      "lon": 20.28548,
      "lat": 52.89394
    }
  },
  {
    "id": 758071,
    "name": "Stromiec",
    "state": "",
    "country": "PL",
    "coord": {
      "lon": 21.092291,
      "lat": 51.646999
    }
  },
  {
    "id": 758090,
    "name": "Strawczyn",
    "state": "",
    "country": "PL",
    "coord": {
      "lon": 20.42135,
      "lat": 50.941769
    }
  },
  {
    "id": 758091,
    "name": "Straszydle",
    "state": "",
    "country": "PL",
    "coord": {
      "lon": 21.981239,
      "lat": 49.900379
    }
  },
  {
    "id": 758103,
    "name": "Strachówka",
    "state": "",
    "country": "PL",
    "coord": {
      "lon": 21.635,
      "lat": 52.426922
    }
  },
  {
    "id": 758110,
    "name": "Strachocina",
    "state": "",
    "country": "PL",
    "coord": {
      "lon": 22.08836,
      "lat": 49.60815
    }
  },
  {
    "id": 758116,
    "name": "Stopnica",
    "state": "",
    "country": "PL",
    "coord": {
      "lon": 20.937799,
      "lat": 50.440182
    }
  },
  {
    "id": 758157,
    "name": "Stoczek Łukowski",
    "state": "",
    "country": "PL",
    "coord": {
      "lon": 21.971371,
      "lat": 51.961349
    }
  },
  {
    "id": 758162,
    "name": "Stoczek",
    "state": "",
    "country": "PL",
    "coord": {
      "lon": 21.900129,
      "lat": 52.54332
    }
  },
  {
    "id": 758175,
    "name": "Stężyca",
    "state": "",
    "country": "PL",
    "coord": {
      "lon": 21.77087,
      "lat": 51.581871
    }
  },
  {
    "id": 758182,
    "name": "Sterdyń",
    "state": "",
    "country": "PL",
    "coord": {
      "lon": 22.293579,
      "lat": 52.580261
    }
  },
  {
    "id": 758204,
    "name": "Stefanów",
    "state": "",
    "country": "PL",
    "coord": {
      "lon": 21.216669,
      "lat": 51.98333
    }
  },
  {
    "id": 758238,
    "name": "Stawiski",
    "state": "",
    "country": "PL",
    "coord": {
      "lon": 22.154619,
      "lat": 53.379871
    }
  },
  {
    "id": 758242,
    "name": "Stawiguda",
    "state": "",
    "country": "PL",
    "coord": {
      "lon": 20.40041,
      "lat": 53.6572
    }
  },
  {
    "id": 758252,
    "name": "Staszów",
    "state": "",
    "country": "PL",
    "coord": {
      "lon": 21.16593,
      "lat": 50.563068
    }
  },
  {
    "id": 758276,
    "name": "Stary Zamość",
    "state": "",
    "country": "PL",
    "coord": {
      "lon": 23.171539,
      "lat": 50.820042
    }
  },
  {
    "id": 758278,
    "name": "Stary Wiśnicz",
    "state": "",
    "country": "PL",
    "coord": {
      "lon": 20.48641,
      "lat": 49.92548
    }
  },
  {
    "id": 758282,
    "name": "Stary Sącz",
    "state": "",
    "country": "PL",
    "coord": {
      "lon": 20.63496,
      "lat": 49.563641
    }
  },
  {
    "id": 758309,
    "name": "Starosielce",
    "state": "",
    "country": "PL",
    "coord": {
      "lon": 23.075291,
      "lat": 53.13353
    }
  },
  {
    "id": 758327,
    "name": "Stare Miasto",
    "state": "",
    "country": "PL",
    "coord": {
      "lon": 22.429279,
      "lat": 50.288792
    }
  },
  {
    "id": 758332,
    "name": "Stare Juchy",
    "state": "",
    "country": "PL",
    "coord": {
      "lon": 22.17367,
      "lat": 53.921982
    }
  },
  {
    "id": 758343,
    "name": "Stare Babice",
    "state": "",
    "country": "PL",
    "coord": {
      "lon": 20.83403,
      "lat": 52.260281
    }
  },
  {
    "id": 758371,
    "name": "Stara Wieś",
    "state": "",
    "country": "PL",
    "coord": {
      "lon": 22.00441,
      "lat": 49.71505
    }
  },
  {
    "id": 758390,
    "name": "Starachowice",
    "state": "",
    "country": "PL",
    "coord": {
      "lon": 21.07126,
      "lat": 51.037399
    }
  },
  {
    "id": 758393,
    "name": "Stąporków",
    "state": "",
    "country": "PL",
    "coord": {
      "lon": 20.57173,
      "lat": 51.137619
    }
  },
  {
    "id": 758415,
    "name": "Stanisławów Pierwszy",
    "state": "",
    "country": "PL",
    "coord": {
      "lon": 21.05184,
      "lat": 52.374851
    }
  },
  {
    "id": 758416,
    "name": "Stanisławów",
    "state": "",
    "country": "PL",
    "coord": {
      "lon": 21.548479,
      "lat": 52.289371
    }
  },
  {
    "id": 758435,
    "name": "Stanisławice",
    "state": "",
    "country": "PL",
    "coord": {
      "lon": 20.351231,
      "lat": 49.9855
    }
  },
  {
    "id": 758445,
    "name": "Stalowa Wola",
    "state": "",
    "country": "PL",
    "coord": {
      "lon": 22.053341,
      "lat": 50.582859
    }
  },
  {
    "id": 758467,
    "name": "Srokowo",
    "state": "",
    "country": "PL",
    "coord": {
      "lon": 21.52282,
      "lat": 54.214161
    }
  },
  {
    "id": 758517,
    "name": "Spiczyn",
    "state": "",
    "country": "PL",
    "coord": {
      "lon": 22.75354,
      "lat": 51.341282
    }
  },
  {
    "id": 758539,
    "name": "Sosnówka",
    "state": "",
    "country": "PL",
    "coord": {
      "lon": 23.33814,
      "lat": 51.750839
    }
  },
  {
    "id": 758548,
    "name": "Sosnowica",
    "state": "",
    "country": "PL",
    "coord": {
      "lon": 23.09215,
      "lat": 51.520649
    }
  },
  {
    "id": 758558,
    "name": "Sośnica",
    "state": "",
    "country": "PL",
    "coord": {
      "lon": 22.874689,
      "lat": 49.900829
    }
  },
  {
    "id": 758574,
    "name": "Sońsk",
    "state": "",
    "country": "PL",
    "coord": {
      "lon": 20.699011,
      "lat": 52.781639
    }
  },
  {
    "id": 758575,
    "name": "Sonina",
    "state": "",
    "country": "PL",
    "coord": {
      "lon": 22.265511,
      "lat": 50.06089
    }
  },
  {
    "id": 758577,
    "name": "Somianka",
    "state": "",
    "country": "PL",
    "coord": {
      "lon": 21.29339,
      "lat": 52.560909
    }
  },
  {
    "id": 758603,
    "name": "Solec-Zdrój",
    "state": "",
    "country": "PL",
    "coord": {
      "lon": 20.889561,
      "lat": 50.36594
    }
  },
  {
    "id": 758605,
    "name": "Solec Nad Wisłą",
    "state": "",
    "country": "PL",
    "coord": {
      "lon": 21.765631,
      "lat": 51.13633
    }
  },
  {
    "id": 758624,
    "name": "Sokoły",
    "state": "",
    "country": "PL",
    "coord": {
      "lon": 22.7005,
      "lat": 52.993141
    }
  },
  {
    "id": 758626,
    "name": "Sokołów Podlaski",
    "state": "",
    "country": "PL",
    "coord": {
      "lon": 22.253071,
      "lat": 52.406769
    }
  },
  {
    "id": 758633,
    "name": "Sokołów Małopolski",
    "state": "",
    "country": "PL",
    "coord": {
      "lon": 22.11968,
      "lat": 50.229092
    }
  },
  {
    "id": 758636,
    "name": "Sokołów Górny",
    "state": "",
    "country": "PL",
    "coord": {
      "lon": 20.45223,
      "lat": 50.723942
    }
  },
  {
    "id": 758646,
    "name": "Sokolniki",
    "state": "",
    "country": "PL",
    "coord": {
      "lon": 21.80649,
      "lat": 50.638031
    }
  },
  {
    "id": 758651,
    "name": "Sokółka",
    "state": "",
    "country": "PL",
    "coord": {
      "lon": 23.502279,
      "lat": 53.40715
    }
  },
  {
    "id": 758681,
    "name": "Sochocin",
    "state": "",
    "country": "PL",
    "coord": {
      "lon": 20.472589,
      "lat": 52.687149
    }
  },
  {
    "id": 758682,
    "name": "Sochaczew",
    "state": "",
    "country": "PL",
    "coord": {
      "lon": 20.23838,
      "lat": 52.229439
    }
  },
  {
    "id": 758697,
    "name": "Sobolew",
    "state": "",
    "country": "PL",
    "coord": {
      "lon": 21.66349,
      "lat": 51.736599
    }
  },
  {
    "id": 758704,
    "name": "Sobków",
    "state": "",
    "country": "PL",
    "coord": {
      "lon": 20.450621,
      "lat": 50.699989
    }
  },
  {
    "id": 758715,
    "name": "Sobienie Jeziory",
    "state": "",
    "country": "PL",
    "coord": {
      "lon": 21.30335,
      "lat": 51.932732
    }
  },
  {
    "id": 758746,
    "name": "Śniadowo",
    "state": "",
    "country": "PL",
    "coord": {
      "lon": 21.99077,
      "lat": 53.038738
    }
  },
  {
    "id": 758759,
    "name": "Smyków",
    "state": "",
    "country": "PL",
    "coord": {
      "lon": 20.40032,
      "lat": 51.044418
    }
  },
  {
    "id": 758833,
    "name": "Smęgorzów",
    "state": "",
    "country": "PL",
    "coord": {
      "lon": 21.004141,
      "lat": 50.228432
    }
  },
  {
    "id": 758850,
    "name": "Słupno",
    "state": "",
    "country": "PL",
    "coord": {
      "lon": 21.15572,
      "lat": 52.38409
    }
  },
  {
    "id": 758853,
    "name": "Słupiec",
    "state": "",
    "country": "PL",
    "coord": {
      "lon": 21.193741,
      "lat": 50.327869
    }
  },
  {
    "id": 758857,
    "name": "Słupia",
    "state": "",
    "country": "PL",
    "coord": {
      "lon": 20.1406,
      "lat": 51.013699
    }
  },
  {
    "id": 758879,
    "name": "Słotwiny",
    "state": "",
    "country": "PL",
    "coord": {
      "lon": 20.950899,
      "lat": 49.436951
    }
  },
  {
    "id": 758883,
    "name": "Słotowa",
    "state": "",
    "country": "PL",
    "coord": {
      "lon": 21.29425,
      "lat": 49.94603
    }
  },
  {
    "id": 758887,
    "name": "Słopnice",
    "state": "",
    "country": "PL",
    "coord": {
      "lon": 20.34325,
      "lat": 49.684959
    }
  },
  {
    "id": 758905,
    "name": "Słomniki",
    "state": "",
    "country": "PL",
    "coord": {
      "lon": 20.082239,
      "lat": 50.24012
    }
  },
  {
    "id": 758952,
    "name": "Sławno",
    "state": "",
    "country": "PL",
    "coord": {
      "lon": 20.14043,
      "lat": 51.392731
    }
  },
  {
    "id": 758967,
    "name": "Sławek",
    "state": "",
    "country": "PL",
    "coord": {
      "lon": 21.25,
      "lat": 52.349998
    }
  },
  {
    "id": 758970,
    "name": "Sławęcin",
    "state": "",
    "country": "PL",
    "coord": {
      "lon": 21.355961,
      "lat": 49.75238
    }
  },
  {
    "id": 758973,
    "name": "Sławatycze",
    "state": "",
    "country": "PL",
    "coord": {
      "lon": 23.5546,
      "lat": 51.763378
    }
  },
  {
    "id": 759007,
    "name": "Skrzyszów",
    "state": "",
    "country": "PL",
    "coord": {
      "lon": 21.06139,
      "lat": 49.993729
    }
  },
  {
    "id": 759022,
    "name": "Skrzydlna",
    "state": "",
    "country": "PL",
    "coord": {
      "lon": 20.18618,
      "lat": 49.753429
    }
  },
  {
    "id": 759064,
    "name": "Skórzec",
    "state": "",
    "country": "PL",
    "coord": {
      "lon": 22.13052,
      "lat": 52.107269
    }
  },
  {
    "id": 759065,
    "name": "Skorupy",
    "state": "",
    "country": "PL",
    "coord": {
      "lon": 23.180019,
      "lat": 53.135239
    }
  },
  {
    "id": 759083,
    "name": "Skopanie",
    "state": "",
    "country": "PL",
    "coord": {
      "lon": 21.57295,
      "lat": 50.481899
    }
  },
  {
    "id": 759092,
    "name": "Skołyszyn",
    "state": "",
    "country": "PL",
    "coord": {
      "lon": 21.336651,
      "lat": 49.74955
    }
  },
  {
    "id": 759123,
    "name": "Skierniewice",
    "state": "",
    "country": "PL",
    "coord": {
      "lon": 20.158369,
      "lat": 51.954849
    }
  },
  {
    "id": 759127,
    "name": "Skierbieszów",
    "state": "",
    "country": "PL",
    "coord": {
      "lon": 23.359171,
      "lat": 50.851582
    }
  },
  {
    "id": 759140,
    "name": "Skarżysko Kościelne",
    "state": "",
    "country": "PL",
    "coord": {
      "lon": 20.911961,
      "lat": 51.138222
    }
  },
  {
    "id": 759141,
    "name": "Skarżysko-Kamienna",
    "state": "",
    "country": "PL",
    "coord": {
      "lon": 20.87162,
      "lat": 51.11311
    }
  },
  {
    "id": 759151,
    "name": "Skaryszew",
    "state": "",
    "country": "PL",
    "coord": {
      "lon": 21.252331,
      "lat": 51.310749
    }
  },
  {
    "id": 759172,
    "name": "Skalbmierz",
    "state": "",
    "country": "PL",
    "coord": {
      "lon": 20.39929,
      "lat": 50.319931
    }
  },
  {
    "id": 759180,
    "name": "Siwki",
    "state": "",
    "country": "PL",
    "coord": {
      "lon": 21.133329,
      "lat": 52.316669
    }
  },
  {
    "id": 759190,
    "name": "Sitno",
    "state": "",
    "country": "PL",
    "coord": {
      "lon": 23.3626,
      "lat": 50.749439
    }
  },
  {
    "id": 759194,
    "name": "Osiedle-Nowiny",
    "state": "",
    "country": "PL",
    "coord": {
      "lon": 20.54117,
      "lat": 50.817699
    }
  },
  {
    "id": 759203,
    "name": "Siołkowa",
    "state": "",
    "country": "PL",
    "coord": {
      "lon": 20.93692,
      "lat": 49.634109
    }
  },
  {
    "id": 759234,
    "name": "Sietesz",
    "state": "",
    "country": "PL",
    "coord": {
      "lon": 22.34671,
      "lat": 49.986221
    }
  },
  {
    "id": 759245,
    "name": "Sierzchów",
    "state": "",
    "country": "PL",
    "coord": {
      "lon": 21.119061,
      "lat": 51.986809
    }
  },
  {
    "id": 759266,
    "name": "Sieradza",
    "state": "",
    "country": "PL",
    "coord": {
      "lon": 20.92947,
      "lat": 50.134991
    }
  },
  {
    "id": 759275,
    "name": "Sienno",
    "state": "",
    "country": "PL",
    "coord": {
      "lon": 21.48325,
      "lat": 51.08773
    }
  },
  {
    "id": 759282,
    "name": "Siennica",
    "state": "",
    "country": "PL",
    "coord": {
      "lon": 21.619209,
      "lat": 52.09164
    }
  },
  {
    "id": 759301,
    "name": "Sieniawa",
    "state": "",
    "country": "PL",
    "coord": {
      "lon": 22.609541,
      "lat": 50.177898
    }
  },
  {
    "id": 759302,
    "name": "Sieniawa",
    "state": "",
    "country": "PL",
    "coord": {
      "lon": 21.927851,
      "lat": 49.565079
    }
  },
  {
    "id": 759316,
    "name": "Siemień",
    "state": "",
    "country": "PL",
    "coord": {
      "lon": 22.77243,
      "lat": 51.62883
    }
  },
  {
    "id": 759317,
    "name": "Siemiechów",
    "state": "",
    "country": "PL",
    "coord": {
      "lon": 20.905951,
      "lat": 49.853588
    }
  },
  {
    "id": 759320,
    "name": "Siemiatycze",
    "state": "",
    "country": "PL",
    "coord": {
      "lon": 22.86231,
      "lat": 52.427189
    }
  },
  {
    "id": 759325,
    "name": "Siemiątkowo",
    "state": "",
    "country": "PL",
    "coord": {
      "lon": 20.028931,
      "lat": 52.8811
    }
  },
  {
    "id": 759398,
    "name": "Siedliska",
    "state": "",
    "country": "PL",
    "coord": {
      "lon": 21.94742,
      "lat": 49.95409
    }
  },
  {
    "id": 759399,
    "name": "Siedliska",
    "state": "",
    "country": "PL",
    "coord": {
      "lon": 20.99625,
      "lat": 49.871632
    }
  },
  {
    "id": 759409,
    "name": "Siedleczka",
    "state": "",
    "country": "PL",
    "coord": {
      "lon": 22.37949,
      "lat": 49.960609
    }
  },
  {
    "id": 759412,
    "name": "Siedlce",
    "state": "",
    "country": "PL",
    "coord": {
      "lon": 22.29006,
      "lat": 52.167721
    }
  },
  {
    "id": 759466,
    "name": "Serokomla",
    "state": "",
    "country": "PL",
    "coord": {
      "lon": 22.332371,
      "lat": 51.700699
    }
  },
  {
    "id": 759470,
    "name": "Serock",
    "state": "",
    "country": "PL",
    "coord": {
      "lon": 21.069099,
      "lat": 52.510361
    }
  },
  {
    "id": 759472,
    "name": "Serniki",
    "state": "",
    "country": "PL",
    "coord": {
      "lon": 22.658529,
      "lat": 51.43716
    }
  },
  {
    "id": 759482,
    "name": "Sępopol",
    "state": "",
    "country": "PL",
    "coord": {
      "lon": 21.01453,
      "lat": 54.269032
    }
  },
  {
    "id": 759495,
    "name": "Sękowa",
    "state": "",
    "country": "PL",
    "coord": {
      "lon": 21.197689,
      "lat": 49.622169
    }
  },
  {
    "id": 759503,
    "name": "Sejny",
    "state": "",
    "country": "PL",
    "coord": {
      "lon": 23.346979,
      "lat": 54.108021
    }
  },
  {
    "id": 759504,
    "name": "Sędziszów Małopolski",
    "state": "",
    "country": "PL",
    "coord": {
      "lon": 21.700621,
      "lat": 50.07069
    }
  },
  {
    "id": 759507,
    "name": "Sędziszów",
    "state": "",
    "country": "PL",
    "coord": {
      "lon": 20.05563,
      "lat": 50.565899
    }
  },
  {
    "id": 759534,
    "name": "Sawin",
    "state": "",
    "country": "PL",
    "coord": {
      "lon": 23.43375,
      "lat": 51.274429
    }
  },
  {
    "id": 759579,
    "name": "Sarnaki",
    "state": "",
    "country": "PL",
    "coord": {
      "lon": 22.89044,
      "lat": 52.315041
    }
  },
  {
    "id": 759591,
    "name": "Sanok",
    "state": "",
    "country": "PL",
    "coord": {
      "lon": 22.205601,
      "lat": 49.555729
    }
  },
  {
    "id": 759603,
    "name": "Sandomierz",
    "state": "",
    "country": "PL",
    "coord": {
      "lon": 21.74898,
      "lat": 50.682652
    }
  },
  {
    "id": 759631,
    "name": "Samborzec",
    "state": "",
    "country": "PL",
    "coord": {
      "lon": 21.64822,
      "lat": 50.646629
    }
  },
  {
    "id": 759678,
    "name": "Sadowne",
    "state": "",
    "country": "PL",
    "coord": {
      "lon": 21.845631,
      "lat": 52.641239
    }
  },
  {
    "id": 759680,
    "name": "Sadowie",
    "state": "",
    "country": "PL",
    "coord": {
      "lon": 21.368839,
      "lat": 50.852612
    }
  },
  {
    "id": 759689,
    "name": "Sadkowice",
    "state": "",
    "country": "PL",
    "coord": {
      "lon": 20.51465,
      "lat": 51.72517
    }
  },
  {
    "id": 759704,
    "name": "Sabnie",
    "state": "",
    "country": "PL",
    "coord": {
      "lon": 22.306971,
      "lat": 52.500969
    }
  },
  {
    "id": 759722,
    "name": "Rzezawa",
    "state": "",
    "country": "PL",
    "coord": {
      "lon": 20.515079,
      "lat": 49.989971
    }
  },
  {
    "id": 759726,
    "name": "Rzewnie",
    "state": "",
    "country": "PL",
    "coord": {
      "lon": 21.336821,
      "lat": 52.835079
    }
  },
  {
    "id": 759734,
    "name": "Rzeszów",
    "state": "",
    "country": "PL",
    "coord": {
      "lon": 21.99901,
      "lat": 50.041321
    }
  },
  {
    "id": 759751,
    "name": "Rzepiennik Strzyżewski",
    "state": "",
    "country": "PL",
    "coord": {
      "lon": 21.03599,
      "lat": 49.80542
    }
  },
  {
    "id": 759754,
    "name": "Rzepedź",
    "state": "",
    "country": "PL",
    "coord": {
      "lon": 22.11174,
      "lat": 49.369968
    }
  },
  {
    "id": 759757,
    "name": "Rzekuń",
    "state": "",
    "country": "PL",
    "coord": {
      "lon": 21.620689,
      "lat": 53.047562
    }
  },
  {
    "id": 759778,
    "name": "Rzeczyca",
    "state": "",
    "country": "PL",
    "coord": {
      "lon": 22.74942,
      "lat": 51.96225
    }
  },
  {
    "id": 759779,
    "name": "Rzeczyca",
    "state": "",
    "country": "PL",
    "coord": {
      "lon": 20.29484,
      "lat": 51.59824
    }
  },
  {
    "id": 759786,
    "name": "Rzeczniów",
    "state": "",
    "country": "PL",
    "coord": {
      "lon": 21.440081,
      "lat": 51.12804
    }
  },
  {
    "id": 759802,
    "name": "Rząśnik",
    "state": "",
    "country": "PL",
    "coord": {
      "lon": 21.36772,
      "lat": 52.713322
    }
  },
  {
    "id": 759814,
    "name": "Rytwiany",
    "state": "",
    "country": "PL",
    "coord": {
      "lon": 21.20636,
      "lat": 50.529202
    }
  },
  {
    "id": 759815,
    "name": "Rytro",
    "state": "",
    "country": "PL",
    "coord": {
      "lon": 20.666309,
      "lat": 49.48904
    }
  },
  {
    "id": 759839,
    "name": "Ryn",
    "state": "",
    "country": "PL",
    "coord": {
      "lon": 21.546419,
      "lat": 53.937698
    }
  },
  {
    "id": 759843,
    "name": "Rymanów",
    "state": "",
    "country": "PL",
    "coord": {
      "lon": 21.868111,
      "lat": 49.576488
    }
  },
  {
    "id": 759852,
    "name": "Ryki",
    "state": "",
    "country": "PL",
    "coord": {
      "lon": 21.932739,
      "lat": 51.62574
    }
  },
  {
    "id": 759859,
    "name": "Ryglice",
    "state": "",
    "country": "PL",
    "coord": {
      "lon": 21.13748,
      "lat": 49.878868
    }
  },
  {
    "id": 759875,
    "name": "Ryczywół",
    "state": "",
    "country": "PL",
    "coord": {
      "lon": 21.42197,
      "lat": 51.691181
    }
  },
  {
    "id": 759895,
    "name": "Rybno",
    "state": "",
    "country": "PL",
    "coord": {
      "lon": 20.10301,
      "lat": 52.242779
    }
  },
  {
    "id": 759915,
    "name": "Rybie",
    "state": "",
    "country": "PL",
    "coord": {
      "lon": 20.93655,
      "lat": 52.15229
    }
  },
  {
    "id": 759922,
    "name": "Rybczewice",
    "state": "",
    "country": "PL",
    "coord": {
      "lon": 22.850531,
      "lat": 51.028759
    }
  },
  {
    "id": 759946,
    "name": "Rutki",
    "state": "",
    "country": "PL",
    "coord": {
      "lon": 22.433331,
      "lat": 53.099998
    }
  },
  {
    "id": 759981,
    "name": "Rusinów",
    "state": "",
    "country": "PL",
    "coord": {
      "lon": 20.587009,
      "lat": 51.436779
    }
  },
  {
    "id": 759993,
    "name": "Rury Jezuickie",
    "state": "",
    "country": "PL",
    "coord": {
      "lon": 22.566669,
      "lat": 51.25
    }
  },
  {
    "id": 760054,
    "name": "Rudnik",
    "state": "",
    "country": "PL",
    "coord": {
      "lon": 22.972931,
      "lat": 50.880348
    }
  },
  {
    "id": 760055,
    "name": "Rudnik nad Sanem",
    "state": "",
    "country": "PL",
    "coord": {
      "lon": 22.24856,
      "lat": 50.441521
    }
  },
  {
    "id": 760062,
    "name": "Rudna Wielka",
    "state": "",
    "country": "PL",
    "coord": {
      "lon": 21.94759,
      "lat": 50.08799
    }
  },
  {
    "id": 760063,
    "name": "Rudna Mała",
    "state": "",
    "country": "PL",
    "coord": {
      "lon": 21.960211,
      "lat": 50.098888
    }
  },
  {
    "id": 760084,
    "name": "Rudka",
    "state": "",
    "country": "PL",
    "coord": {
      "lon": 22.726761,
      "lat": 52.724388
    }
  },
  {
    "id": 760087,
    "name": "Rudka",
    "state": "",
    "country": "PL",
    "coord": {
      "lon": 21.328529,
      "lat": 52.143242
    }
  },
  {
    "id": 760123,
    "name": "Ruda Maleniecka",
    "state": "",
    "country": "PL",
    "coord": {
      "lon": 20.22377,
      "lat": 51.14592
    }
  },
  {
    "id": 760155,
    "name": "Ruda",
    "state": "",
    "country": "PL",
    "coord": {
      "lon": 22.383101,
      "lat": 50.695148
    }
  },
  {
    "id": 760166,
    "name": "Ruciane-Nida",
    "state": "",
    "country": "PL",
    "coord": {
      "lon": 21.53964,
      "lat": 53.641609
    }
  },
  {
    "id": 760182,
    "name": "Rożwienica",
    "state": "",
    "country": "PL",
    "coord": {
      "lon": 22.59424,
      "lat": 49.95277
    }
  },
  {
    "id": 760203,
    "name": "Rozogi",
    "state": "",
    "country": "PL",
    "coord": {
      "lon": 21.36223,
      "lat": 53.485489
    }
  },
  {
    "id": 760237,
    "name": "Rozbórz",
    "state": "",
    "country": "PL",
    "coord": {
      "lon": 22.54686,
      "lat": 50.056149
    }
  },
  {
    "id": 760254,
    "name": "Siennica Różana",
    "state": "",
    "country": "PL",
    "coord": {
      "lon": 23.322599,
      "lat": 51.001228
    }
  },
  {
    "id": 760255,
    "name": "Różan",
    "state": "",
    "country": "PL",
    "coord": {
      "lon": 21.39105,
      "lat": 52.887569
    }
  },
  {
    "id": 760308,
    "name": "Rossosz",
    "state": "",
    "country": "PL",
    "coord": {
      "lon": 23.1374,
      "lat": 51.85836
    }
  },
  {
    "id": 760318,
    "name": "Rososz",
    "state": "",
    "country": "PL",
    "coord": {
      "lon": 22.866671,
      "lat": 51.283329
    }
  },
  {
    "id": 760343,
    "name": "Ropczyce",
    "state": "",
    "country": "PL",
    "coord": {
      "lon": 21.60891,
      "lat": 50.052292
    }
  },
  {
    "id": 760347,
    "name": "Ropa",
    "state": "",
    "country": "PL",
    "coord": {
      "lon": 21.04431,
      "lat": 49.591461
    }
  },
  {
    "id": 760395,
    "name": "Rokitno",
    "state": "",
    "country": "PL",
    "coord": {
      "lon": 23.295139,
      "lat": 52.121422
    }
  },
  {
    "id": 760404,
    "name": "Rokietnica",
    "state": "",
    "country": "PL",
    "coord": {
      "lon": 22.64171,
      "lat": 49.89983
    }
  },
  {
    "id": 760414,
    "name": "Rogóźno",
    "state": "",
    "country": "PL",
    "coord": {
      "lon": 23.390409,
      "lat": 50.464169
    }
  },
  {
    "id": 760415,
    "name": "Rogóźno",
    "state": "",
    "country": "PL",
    "coord": {
      "lon": 22.374861,
      "lat": 50.073669
    }
  },
  {
    "id": 760445,
    "name": "Rogów",
    "state": "",
    "country": "PL",
    "coord": {
      "lon": 20.43483,
      "lat": 51.20414
    }
  },
  {
    "id": 760462,
    "name": "Rogalów",
    "state": "",
    "country": "PL",
    "coord": {
      "lon": 22.131519,
      "lat": 51.309811
    }
  },
  {
    "id": 760488,
    "name": "Reszel",
    "state": "",
    "country": "PL",
    "coord": {
      "lon": 21.145849,
      "lat": 54.050419
    }
  },
  {
    "id": 760490,
    "name": "Repki",
    "state": "",
    "country": "PL",
    "coord": {
      "lon": 22.391171,
      "lat": 52.385551
    }
  },
  {
    "id": 760516,
    "name": "Rejowiec Fabryczny",
    "state": "",
    "country": "PL",
    "coord": {
      "lon": 23.24724,
      "lat": 51.11414
    }
  },
  {
    "id": 760518,
    "name": "Rejowiec",
    "state": "",
    "country": "PL",
    "coord": {
      "lon": 23.281919,
      "lat": 51.091339
    }
  },
  {
    "id": 760527,
    "name": "Regnów",
    "state": "",
    "country": "PL",
    "coord": {
      "lon": 20.38711,
      "lat": 51.748501
    }
  },
  {
    "id": 760528,
    "name": "Regimin",
    "state": "",
    "country": "PL",
    "coord": {
      "lon": 20.55319,
      "lat": 52.941662
    }
  },
  {
    "id": 760584,
    "name": "Rawa Mazowiecka",
    "state": "",
    "country": "PL",
    "coord": {
      "lon": 20.25493,
      "lat": 51.76437
    }
  },
  {
    "id": 760607,
    "name": "Raszyn",
    "state": "",
    "country": "PL",
    "coord": {
      "lon": 20.9226,
      "lat": 52.156029
    }
  },
  {
    "id": 760624,
    "name": "Raniżów",
    "state": "",
    "country": "PL",
    "coord": {
      "lon": 21.971371,
      "lat": 50.258732
    }
  },
  {
    "id": 760632,
    "name": "Rakszawa",
    "state": "",
    "country": "PL",
    "coord": {
      "lon": 22.239071,
      "lat": 50.160511
    }
  },
  {
    "id": 760657,
    "name": "Raków",
    "state": "",
    "country": "PL",
    "coord": {
      "lon": 21.04517,
      "lat": 50.674271
    }
  },
  {
    "id": 760672,
    "name": "Rajgród",
    "state": "",
    "country": "PL",
    "coord": {
      "lon": 22.705151,
      "lat": 53.731022
    }
  },
  {
    "id": 760680,
    "name": "Radzyń Podlaski",
    "state": "",
    "country": "PL",
    "coord": {
      "lon": 22.616671,
      "lat": 51.783329
    }
  },
  {
    "id": 760684,
    "name": "Radzymin",
    "state": "",
    "country": "PL",
    "coord": {
      "lon": 21.184139,
      "lat": 52.41592
    }
  },
  {
    "id": 760697,
    "name": "Radziłów",
    "state": "",
    "country": "PL",
    "coord": {
      "lon": 22.40988,
      "lat": 53.409939
    }
  },
  {
    "id": 760711,
    "name": "Radziejowice",
    "state": "",
    "country": "PL",
    "coord": {
      "lon": 20.547701,
      "lat": 52.008339
    }
  },
  {
    "id": 760723,
    "name": "Radzanów",
    "state": "",
    "country": "PL",
    "coord": {
      "lon": 20.09219,
      "lat": 52.942379
    }
  },
  {
    "id": 760724,
    "name": "Radzanów",
    "state": "",
    "country": "PL",
    "coord": {
      "lon": 20.863979,
      "lat": 51.557861
    }
  },
  {
    "id": 760727,
    "name": "Radymno",
    "state": "",
    "country": "PL",
    "coord": {
      "lon": 22.82375,
      "lat": 49.947201
    }
  },
  {
    "id": 760745,
    "name": "Radoszyce",
    "state": "",
    "country": "PL",
    "coord": {
      "lon": 20.25836,
      "lat": 51.073921
    }
  },
  {
    "id": 760769,
    "name": "Radomyśl Wielki",
    "state": "",
    "country": "PL",
    "coord": {
      "lon": 21.27693,
      "lat": 50.19693
    }
  },
  {
    "id": 760771,
    "name": "Radomyśl",
    "state": "",
    "country": "PL",
    "coord": {
      "lon": 21.943649,
      "lat": 50.681011
    }
  },
  {
    "id": 760778,
    "name": "Radom",
    "state": "",
    "country": "PL",
    "coord": {
      "lon": 21.147141,
      "lat": 51.402531
    }
  },
  {
    "id": 760783,
    "name": "Radłów",
    "state": "",
    "country": "PL",
    "coord": {
      "lon": 20.84967,
      "lat": 50.08419
    }
  },
  {
    "id": 760804,
    "name": "Radgoszcz",
    "state": "",
    "country": "PL",
    "coord": {
      "lon": 21.11315,
      "lat": 50.205799
    }
  },
  {
    "id": 760806,
    "name": "Radecznica",
    "state": "",
    "country": "PL",
    "coord": {
      "lon": 22.82976,
      "lat": 50.751549
    }
  },
  {
    "id": 760825,
    "name": "Raczki",
    "state": "",
    "country": "PL",
    "coord": {
      "lon": 22.78487,
      "lat": 53.987492
    }
  },
  {
    "id": 760830,
    "name": "Racławice",
    "state": "",
    "country": "PL",
    "coord": {
      "lon": 22.16552,
      "lat": 50.513699
    }
  },
  {
    "id": 760844,
    "name": "Raciąż",
    "state": "",
    "country": "PL",
    "coord": {
      "lon": 20.117701,
      "lat": 52.781521
    }
  },
  {
    "id": 760853,
    "name": "Rachanie",
    "state": "",
    "country": "PL",
    "coord": {
      "lon": 23.546881,
      "lat": 50.538422
    }
  },
  {
    "id": 760871,
    "name": "Pysznica",
    "state": "",
    "country": "PL",
    "coord": {
      "lon": 22.129129,
      "lat": 50.569988
    }
  },
  {
    "id": 760892,
    "name": "Puszcza Mariańska",
    "state": "",
    "country": "PL",
    "coord": {
      "lon": 20.35037,
      "lat": 51.979012
    }
  },
  {
    "id": 760909,
    "name": "Purda",
    "state": "",
    "country": "PL",
    "coord": {
      "lon": 20.706829,
      "lat": 53.708439
    }
  },
  {
    "id": 760914,
    "name": "Puńsk",
    "state": "",
    "country": "PL",
    "coord": {
      "lon": 23.18124,
      "lat": 54.251141
    }
  },
  {
    "id": 760917,
    "name": "Pułtusk",
    "state": "",
    "country": "PL",
    "coord": {
      "lon": 21.08276,
      "lat": 52.702499
    }
  },
  {
    "id": 760924,
    "name": "Puławy",
    "state": "",
    "country": "PL",
    "coord": {
      "lon": 21.969391,
      "lat": 51.41655
    }
  },
  {
    "id": 760951,
    "name": "Puchaczów",
    "state": "",
    "country": "PL",
    "coord": {
      "lon": 22.9737,
      "lat": 51.310501
    }
  },
  {
    "id": 760987,
    "name": "Przytyk",
    "state": "",
    "country": "PL",
    "coord": {
      "lon": 20.90587,
      "lat": 51.465672
    }
  },
  {
    "id": 760999,
    "name": "Przytoczno",
    "state": "",
    "country": "PL",
    "coord": {
      "lon": 22.271351,
      "lat": 51.619511
    }
  },
  {
    "id": 761008,
    "name": "Przysucha",
    "state": "",
    "country": "PL",
    "coord": {
      "lon": 20.628889,
      "lat": 51.358582
    }
  },
  {
    "id": 761055,
    "name": "Przyłęk",
    "state": "",
    "country": "PL",
    "coord": {
      "lon": 21.74744,
      "lat": 51.308559
    }
  },
  {
    "id": 761085,
    "name": "Przybyszówka",
    "state": "",
    "country": "PL",
    "coord": {
      "lon": 21.925791,
      "lat": 50.047878
    }
  },
  {
    "id": 761101,
    "name": "Przyborów",
    "state": "",
    "country": "PL",
    "coord": {
      "lon": 20.66279,
      "lat": 50.03035
    }
  },
  {
    "id": 761131,
    "name": "Przeworsk",
    "state": "",
    "country": "PL",
    "coord": {
      "lon": 22.49408,
      "lat": 50.05912
    }
  },
  {
    "id": 761145,
    "name": "Przesmyki",
    "state": "",
    "country": "PL",
    "coord": {
      "lon": 22.583941,
      "lat": 52.268162
    }
  },
  {
    "id": 761168,
    "name": "Przemyśl",
    "state": "",
    "country": "PL",
    "coord": {
      "lon": 22.767281,
      "lat": 49.784981
    }
  },
  {
    "id": 761187,
    "name": "Przędzel",
    "state": "",
    "country": "PL",
    "coord": {
      "lon": 22.21925,
      "lat": 50.494652
    }
  },
  {
    "id": 761193,
    "name": "Przedmieście Dubieckie",
    "state": "",
    "country": "PL",
    "coord": {
      "lon": 22.371771,
      "lat": 49.837101
    }
  },
  {
    "id": 761210,
    "name": "Przecław",
    "state": "",
    "country": "PL",
    "coord": {
      "lon": 21.48007,
      "lat": 50.19339
    }
  },
  {
    "id": 761218,
    "name": "Przasnysz",
    "state": "",
    "country": "PL",
    "coord": {
      "lon": 20.880289,
      "lat": 53.01907
    }
  },
  {
    "id": 761228,
    "name": "Pruszków",
    "state": "",
    "country": "PL",
    "coord": {
      "lon": 20.81214,
      "lat": 52.170719
    }
  },
  {
    "id": 761255,
    "name": "Pruchnik",
    "state": "",
    "country": "PL",
    "coord": {
      "lon": 22.515539,
      "lat": 49.9062
    }
  },
  {
    "id": 761258,
    "name": "Proszowice",
    "state": "",
    "country": "PL",
    "coord": {
      "lon": 20.289089,
      "lat": 50.192749
    }
  },
  {
    "id": 761262,
    "name": "Prostki",
    "state": "",
    "country": "PL",
    "coord": {
      "lon": 22.431829,
      "lat": 53.699009
    }
  },
  {
    "id": 761273,
    "name": "Promna",
    "state": "",
    "country": "PL",
    "coord": {
      "lon": 20.959169,
      "lat": 51.680061
    }
  },
  {
    "id": 761300,
    "name": "Prażmów",
    "state": "",
    "country": "PL",
    "coord": {
      "lon": 20.95479,
      "lat": 51.940399
    }
  },
  {
    "id": 761331,
    "name": "Pozezdrze",
    "state": "",
    "country": "PL",
    "coord": {
      "lon": 21.859699,
      "lat": 54.141472
    }
  },
  {
    "id": 761350,
    "name": "Potworów",
    "state": "",
    "country": "PL",
    "coord": {
      "lon": 20.72176,
      "lat": 51.508739
    }
  },
  {
    "id": 761356,
    "name": "Potok Wielki",
    "state": "",
    "country": "PL",
    "coord": {
      "lon": 22.216419,
      "lat": 50.7915
    }
  },
  {
    "id": 761363,
    "name": "Potok Górny",
    "state": "",
    "country": "PL",
    "coord": {
      "lon": 22.56188,
      "lat": 50.384769
    }
  },
  {
    "id": 761388,
    "name": "Poświętne",
    "state": "",
    "country": "PL",
    "coord": {
      "lon": 21.42137,
      "lat": 52.32967
    }
  },
  {
    "id": 761390,
    "name": "Poświętne",
    "state": "",
    "country": "PL",
    "coord": {
      "lon": 20.364531,
      "lat": 51.532028
    }
  },
  {
    "id": 761407,
    "name": "Posejny",
    "state": "",
    "country": "PL",
    "coord": {
      "lon": 23.357719,
      "lat": 54.096111
    }
  },
  {
    "id": 761425,
    "name": "Posada Dolna",
    "state": "",
    "country": "PL",
    "coord": {
      "lon": 21.868481,
      "lat": 49.582668
    }
  },
  {
    "id": 761437,
    "name": "Poronin",
    "state": "",
    "country": "PL",
    "coord": {
      "lon": 20.002911,
      "lat": 49.337811
    }
  },
  {
    "id": 761461,
    "name": "Poręba Spytkowska",
    "state": "",
    "country": "PL",
    "coord": {
      "lon": 20.55405,
      "lat": 49.939949
    }
  },
  {
    "id": 761471,
    "name": "Poręba",
    "state": "",
    "country": "PL",
    "coord": {
      "lon": 22.32004,
      "lat": 50.354031
    }
  },
  {
    "id": 761472,
    "name": "Poręba",
    "state": "",
    "country": "PL",
    "coord": {
      "lon": 20.017179,
      "lat": 49.796452
    }
  },
  {
    "id": 761474,
    "name": "Poraż",
    "state": "",
    "country": "PL",
    "coord": {
      "lon": 22.225,
      "lat": 49.48597
    }
  },
  {
    "id": 761477,
    "name": "Porąbka Uszewska",
    "state": "",
    "country": "PL",
    "coord": {
      "lon": 20.690519,
      "lat": 49.9426
    }
  },
  {
    "id": 761546,
    "name": "Poniatowa",
    "state": "",
    "country": "PL",
    "coord": {
      "lon": 22.13093,
      "lat": 51.179829
    }
  },
  {
    "id": 761556,
    "name": "Pomorzany",
    "state": "",
    "country": "PL",
    "coord": {
      "lon": 21.13858,
      "lat": 51.225239
    }
  },
  {
    "id": 761561,
    "name": "Pomiechówek",
    "state": "",
    "country": "PL",
    "coord": {
      "lon": 20.729231,
      "lat": 52.471378
    }
  },
  {
    "id": 761582,
    "name": "Połomia",
    "state": "",
    "country": "PL",
    "coord": {
      "lon": 21.891979,
      "lat": 49.904751
    }
  },
  {
    "id": 761607,
    "name": "Policzna",
    "state": "",
    "country": "PL",
    "coord": {
      "lon": 21.626841,
      "lat": 51.455448
    }
  },
  {
    "id": 761652,
    "name": "Połaniec",
    "state": "",
    "country": "PL",
    "coord": {
      "lon": 21.2812,
      "lat": 50.433239
    }
  },
  {
    "id": 761653,
    "name": "Polańczyk",
    "state": "",
    "country": "PL",
    "coord": {
      "lon": 22.42112,
      "lat": 49.36969
    }
  },
  {
    "id": 761663,
    "name": "Pokrzywnica",
    "state": "",
    "country": "PL",
    "coord": {
      "lon": 21.019251,
      "lat": 52.62072
    }
  },
  {
    "id": 761671,
    "name": "Pokrówka",
    "state": "",
    "country": "PL",
    "coord": {
      "lon": 23.463449,
      "lat": 51.094791
    }
  },
  {
    "id": 761714,
    "name": "Pogórska Wola",
    "state": "",
    "country": "PL",
    "coord": {
      "lon": 21.157949,
      "lat": 50.018551
    }
  },
  {
    "id": 761812,
    "name": "Podłęże",
    "state": "",
    "country": "PL",
    "coord": {
      "lon": 20.16781,
      "lat": 50.01458
    }
  },
  {
    "id": 761878,
    "name": "Podkowa Leśna",
    "state": "",
    "country": "PL",
    "coord": {
      "lon": 20.72665,
      "lat": 52.122372
    }
  },
  {
    "id": 761920,
    "name": "Podemłynek",
    "state": "",
    "country": "PL",
    "coord": {
      "lon": 20.903521,
      "lat": 51.123718
    }
  },
  {
    "id": 761921,
    "name": "Podegrodzie",
    "state": "",
    "country": "PL",
    "coord": {
      "lon": 20.588551,
      "lat": 49.576881
    }
  },
  {
    "id": 761922,
    "name": "Podedwórze",
    "state": "",
    "country": "PL",
    "coord": {
      "lon": 23.19961,
      "lat": 51.688148
    }
  },
  {
    "id": 761968,
    "name": "Pobitno",
    "state": "",
    "country": "PL",
    "coord": {
      "lon": 22.028191,
      "lat": 50.04628
    }
  },
  {
    "id": 761973,
    "name": "Poberezany",
    "state": "",
    "country": "PL",
    "coord": {
      "lon": 23.902809,
      "lat": 50.79364
    }
  },
  {
    "id": 761978,
    "name": "Pniewy",
    "state": "",
    "country": "PL",
    "coord": {
      "lon": 20.745781,
      "lat": 51.91468
    }
  },
  {
    "id": 762021,
    "name": "Płońsk",
    "state": "",
    "country": "PL",
    "coord": {
      "lon": 20.375521,
      "lat": 52.623482
    }
  },
  {
    "id": 762032,
    "name": "Płoniawy-Bramura",
    "state": "",
    "country": "PL",
    "coord": {
      "lon": 21.071779,
      "lat": 52.977798
    }
  },
  {
    "id": 762056,
    "name": "Pleśna",
    "state": "",
    "country": "PL",
    "coord": {
      "lon": 20.945259,
      "lat": 49.926418
    }
  },
  {
    "id": 762071,
    "name": "Pławo",
    "state": "",
    "country": "PL",
    "coord": {
      "lon": 22.072769,
      "lat": 50.569939
    }
  },
  {
    "id": 762106,
    "name": "Piwniczna-Zdrój",
    "state": "",
    "country": "PL",
    "coord": {
      "lon": 20.71423,
      "lat": 49.440559
    }
  },
  {
    "id": 762118,
    "name": "Piszczac",
    "state": "",
    "country": "PL",
    "coord": {
      "lon": 23.37719,
      "lat": 51.981178
    }
  },
  {
    "id": 762120,
    "name": "Pisz",
    "state": "",
    "country": "PL",
    "coord": {
      "lon": 21.812531,
      "lat": 53.627441
    }
  },
  {
    "id": 762126,
    "name": "Piskorowice",
    "state": "",
    "country": "PL",
    "coord": {
      "lon": 22.528669,
      "lat": 50.23579
    }
  },
  {
    "id": 762199,
    "name": "Pionki",
    "state": "",
    "country": "PL",
    "coord": {
      "lon": 21.449949,
      "lat": 51.47604
    }
  },
  {
    "id": 762201,
    "name": "Pińczów",
    "state": "",
    "country": "PL",
    "coord": {
      "lon": 20.526489,
      "lat": 50.520519
    }
  },
  {
    "id": 762203,
    "name": "Pilzno",
    "state": "",
    "country": "PL",
    "coord": {
      "lon": 21.29228,
      "lat": 49.978828
    }
  },
  {
    "id": 762223,
    "name": "Pilawa",
    "state": "",
    "country": "PL",
    "coord": {
      "lon": 21.53089,
      "lat": 51.95945
    }
  },
  {
    "id": 762275,
    "name": "Pierzchnica",
    "state": "",
    "country": "PL",
    "coord": {
      "lon": 20.75489,
      "lat": 50.69754
    }
  },
  {
    "id": 762311,
    "name": "Pieniężno",
    "state": "",
    "country": "PL",
    "coord": {
      "lon": 20.12833,
      "lat": 54.236488
    }
  },
  {
    "id": 762331,
    "name": "Piekoszów",
    "state": "",
    "country": "PL",
    "coord": {
      "lon": 20.46418,
      "lat": 50.880348
    }
  },
  {
    "id": 762361,
    "name": "Piecki",
    "state": "",
    "country": "PL",
    "coord": {
      "lon": 21.33914,
      "lat": 53.757591
    }
  },
  {
    "id": 762366,
    "name": "Piątnica",
    "state": "",
    "country": "PL",
    "coord": {
      "lon": 22.095909,
      "lat": 53.196571
    }
  },
  {
    "id": 762381,
    "name": "Piastów",
    "state": "",
    "country": "PL",
    "coord": {
      "lon": 20.83952,
      "lat": 52.184349
    }
  },
  {
    "id": 762390,
    "name": "Piaski",
    "state": "",
    "country": "PL",
    "coord": {
      "lon": 22.84856,
      "lat": 51.13892
    }
  },
  {
    "id": 762414,
    "name": "Piaski",
    "state": "",
    "country": "PL",
    "coord": {
      "lon": 20.23436,
      "lat": 50.030022
    }
  },
  {
    "id": 762423,
    "name": "Piaseczno",
    "state": "",
    "country": "PL",
    "coord": {
      "lon": 21.02397,
      "lat": 52.081402
    }
  },
  {
    "id": 762458,
    "name": "Perlejewo",
    "state": "",
    "country": "PL",
    "coord": {
      "lon": 22.564569,
      "lat": 52.566761
    }
  },
  {
    "id": 762548,
    "name": "Pawłów",
    "state": "",
    "country": "PL",
    "coord": {
      "lon": 21.120621,
      "lat": 50.962158
    }
  },
  {
    "id": 762551,
    "name": "Pawłosiów",
    "state": "",
    "country": "PL",
    "coord": {
      "lon": 22.647631,
      "lat": 49.995331
    }
  },
  {
    "id": 762556,
    "name": "Pawlikowice",
    "state": "",
    "country": "PL",
    "coord": {
      "lon": 20.054859,
      "lat": 49.953098
    }
  },
  {
    "id": 762588,
    "name": "Pasym",
    "state": "",
    "country": "PL",
    "coord": {
      "lon": 20.79188,
      "lat": 53.650688
    }
  },
  {
    "id": 762619,
    "name": "Parysów",
    "state": "",
    "country": "PL",
    "coord": {
      "lon": 21.680059,
      "lat": 51.975842
    }
  },
  {
    "id": 762643,
    "name": "Parczew",
    "state": "",
    "country": "PL",
    "coord": {
      "lon": 22.90057,
      "lat": 51.640209
    }
  },
  {
    "id": 762661,
    "name": "Paradyż",
    "state": "",
    "country": "PL",
    "coord": {
      "lon": 20.113741,
      "lat": 51.306042
    }
  },
  {
    "id": 762663,
    "name": "Paprotnia",
    "state": "",
    "country": "PL",
    "coord": {
      "lon": 22.46756,
      "lat": 52.300709
    }
  },
  {
    "id": 762664,
    "name": "Paprotnia",
    "state": "",
    "country": "PL",
    "coord": {
      "lon": 20.423201,
      "lat": 52.205132
    }
  },
  {
    "id": 762684,
    "name": "Pantalowice",
    "state": "",
    "country": "PL",
    "coord": {
      "lon": 22.435631,
      "lat": 49.952099
    }
  },
  {
    "id": 762734,
    "name": "Padew Narodowa",
    "state": "",
    "country": "PL",
    "coord": {
      "lon": 21.500589,
      "lat": 50.439468
    }
  },
  {
    "id": 762753,
    "name": "Pacanów",
    "state": "",
    "country": "PL",
    "coord": {
      "lon": 21.041479,
      "lat": 50.400311
    }
  },
  {
    "id": 762769,
    "name": "Ożarów Mazowiecki",
    "state": "",
    "country": "PL",
    "coord": {
      "lon": 20.797159,
      "lat": 52.210388
    }
  },
  {
    "id": 762774,
    "name": "Ożarów",
    "state": "",
    "country": "PL",
    "coord": {
      "lon": 21.66658,
      "lat": 50.887981
    }
  },
  {
    "id": 762782,
    "name": "Owczarnia",
    "state": "",
    "country": "PL",
    "coord": {
      "lon": 20.704679,
      "lat": 52.111141
    }
  },
  {
    "id": 762788,
    "name": "Otwock",
    "state": "",
    "country": "PL",
    "coord": {
      "lon": 21.26129,
      "lat": 52.10577
    }
  },
  {
    "id": 762792,
    "name": "Otrębusy",
    "state": "",
    "country": "PL",
    "coord": {
      "lon": 20.760731,
      "lat": 52.128429
    }
  },
  {
    "id": 762841,
    "name": "Ostrowsko",
    "state": "",
    "country": "PL",
    "coord": {
      "lon": 20.100519,
      "lat": 49.476158
    }
  },
  {
    "id": 762850,
    "name": "Ostrów Mazowiecka",
    "state": "",
    "country": "PL",
    "coord": {
      "lon": 21.895069,
      "lat": 52.802448
    }
  },
  {
    "id": 762851,
    "name": "Ostrów Lubelski",
    "state": "",
    "country": "PL",
    "coord": {
      "lon": 22.852871,
      "lat": 51.49416
    }
  },
  {
    "id": 762863,
    "name": "Ostrowiec Świętokrzyski",
    "state": "",
    "country": "PL",
    "coord": {
      "lon": 21.38525,
      "lat": 50.929359
    }
  },
  {
    "id": 762873,
    "name": "Ostrówek",
    "state": "",
    "country": "PL",
    "coord": {
      "lon": 21.760139,
      "lat": 52.553501
    }
  },
  {
    "id": 762878,
    "name": "Ostrówek",
    "state": "",
    "country": "PL",
    "coord": {
      "lon": 22.61227,
      "lat": 51.581501
    }
  },
  {
    "id": 762901,
    "name": "Ostrów",
    "state": "",
    "country": "PL",
    "coord": {
      "lon": 21.593201,
      "lat": 50.09779
    }
  },
  {
    "id": 762903,
    "name": "Ostrów",
    "state": "",
    "country": "PL",
    "coord": {
      "lon": 20.88269,
      "lat": 50.016289
    }
  },
  {
    "id": 762904,
    "name": "Ostrów",
    "state": "",
    "country": "PL",
    "coord": {
      "lon": 22.7871,
      "lat": 49.968121
    }
  },
  {
    "id": 762909,
    "name": "Ostrołęka",
    "state": "",
    "country": "PL",
    "coord": {
      "lon": 21.575661,
      "lat": 53.086208
    }
  },
  {
    "id": 762925,
    "name": "Ostoja",
    "state": "",
    "country": "PL",
    "coord": {
      "lon": 20.82316,
      "lat": 52.153431
    }
  },
  {
    "id": 763006,
    "name": "Osiek Jasielski",
    "state": "",
    "country": "PL",
    "coord": {
      "lon": 21.4884,
      "lat": 49.63784
    }
  },
  {
    "id": 763011,
    "name": "Osiek",
    "state": "",
    "country": "PL",
    "coord": {
      "lon": 21.441919,
      "lat": 50.519958
    }
  },
  {
    "id": 763013,
    "name": "Osieczany",
    "state": "",
    "country": "PL",
    "coord": {
      "lon": 19.982071,
      "lat": 49.842522
    }
  },
  {
    "id": 763014,
    "name": "Osieck",
    "state": "",
    "country": "PL",
    "coord": {
      "lon": 21.41913,
      "lat": 51.96653
    }
  },
  {
    "id": 763028,
    "name": "Orzysz",
    "state": "",
    "country": "PL",
    "coord": {
      "lon": 21.948111,
      "lat": 53.809669
    }
  },
  {
    "id": 763051,
    "name": "Orzechówka",
    "state": "",
    "country": "PL",
    "coord": {
      "lon": 21.94519,
      "lat": 49.730801
    }
  },
  {
    "id": 763063,
    "name": "Orońsko",
    "state": "",
    "country": "PL",
    "coord": {
      "lon": 20.990669,
      "lat": 51.313389
    }
  },
  {
    "id": 763066,
    "name": "Orneta",
    "state": "",
    "country": "PL",
    "coord": {
      "lon": 20.13328,
      "lat": 54.11483
    }
  },
  {
    "id": 763069,
    "name": "Orły",
    "state": "",
    "country": "PL",
    "coord": {
      "lon": 22.80298,
      "lat": 49.871071
    }
  },
  {
    "id": 763094,
    "name": "Orla",
    "state": "",
    "country": "PL",
    "coord": {
      "lon": 23.33213,
      "lat": 52.70546
    }
  },
  {
    "id": 763107,
    "name": "Opole Lubelskie",
    "state": "",
    "country": "PL",
    "coord": {
      "lon": 21.968969,
      "lat": 51.147751
    }
  },
  {
    "id": 763111,
    "name": "Opoczno",
    "state": "",
    "country": "PL",
    "coord": {
      "lon": 20.278271,
      "lat": 51.37569
    }
  },
  {
    "id": 763113,
    "name": "Opinogóra Górna",
    "state": "",
    "country": "PL",
    "coord": {
      "lon": 20.71781,
      "lat": 52.90554
    }
  },
  {
    "id": 763120,
    "name": "Opatowiec",
    "state": "",
    "country": "PL",
    "coord": {
      "lon": 20.72348,
      "lat": 50.243141
    }
  },
  {
    "id": 763121,
    "name": "Opatów",
    "state": "",
    "country": "PL",
    "coord": {
      "lon": 21.425381,
      "lat": 50.800579
    }
  },
  {
    "id": 763165,
    "name": "Olsztynek",
    "state": "",
    "country": "PL",
    "coord": {
      "lon": 20.28471,
      "lat": 53.58374
    }
  },
  {
    "id": 763166,
    "name": "Olsztyn",
    "state": "",
    "country": "PL",
    "coord": {
      "lon": 20.49416,
      "lat": 53.779949
    }
  },
  {
    "id": 763174,
    "name": "Olszówka",
    "state": "",
    "country": "PL",
    "coord": {
      "lon": 20.028851,
      "lat": 49.614552
    }
  },
  {
    "id": 763244,
    "name": "Olszanica",
    "state": "",
    "country": "PL",
    "coord": {
      "lon": 22.443821,
      "lat": 49.477409
    }
  },
  {
    "id": 763245,
    "name": "Olszana",
    "state": "",
    "country": "PL",
    "coord": {
      "lon": 20.521259,
      "lat": 49.567478
    }
  },
  {
    "id": 763249,
    "name": "Ołpiny",
    "state": "",
    "country": "PL",
    "coord": {
      "lon": 21.204639,
      "lat": 49.806862
    }
  },
  {
    "id": 763260,
    "name": "Oleszyce",
    "state": "",
    "country": "PL",
    "coord": {
      "lon": 23.034809,
      "lat": 50.1675
    }
  },
  {
    "id": 763263,
    "name": "Olesno",
    "state": "",
    "country": "PL",
    "coord": {
      "lon": 20.925779,
      "lat": 50.201519
    }
  },
  {
    "id": 763268,
    "name": "Oleśnica",
    "state": "",
    "country": "PL",
    "coord": {
      "lon": 21.064569,
      "lat": 50.453571
    }
  },
  {
    "id": 763291,
    "name": "Olecko",
    "state": "",
    "country": "PL",
    "coord": {
      "lon": 22.50704,
      "lat": 54.033741
    }
  },
  {
    "id": 763310,
    "name": "Olchowce",
    "state": "",
    "country": "PL",
    "coord": {
      "lon": 22.233049,
      "lat": 49.55315
    }
  },
  {
    "id": 763327,
    "name": "Oksa",
    "state": "",
    "country": "PL",
    "coord": {
      "lon": 20.100861,
      "lat": 50.728741
    }
  },
  {
    "id": 763351,
    "name": "Okocim",
    "state": "",
    "country": "PL",
    "coord": {
      "lon": 20.601601,
      "lat": 49.948898
    }
  },
  {
    "id": 763361,
    "name": "Ojrzeń",
    "state": "",
    "country": "PL",
    "coord": {
      "lon": 20.54315,
      "lat": 52.765701
    }
  },
  {
    "id": 763399,
    "name": "Odrzywół",
    "state": "",
    "country": "PL",
    "coord": {
      "lon": 20.55559,
      "lat": 51.519531
    }
  },
  {
    "id": 763401,
    "name": "Odrzykoń",
    "state": "",
    "country": "PL",
    "coord": {
      "lon": 21.74074,
      "lat": 49.74057
    }
  },
  {
    "id": 763440,
    "name": "Ochotnica Dolna",
    "state": "",
    "country": "PL",
    "coord": {
      "lon": 20.342649,
      "lat": 49.526821
    }
  },
  {
    "id": 763451,
    "name": "Obsza",
    "state": "",
    "country": "PL",
    "coord": {
      "lon": 22.956881,
      "lat": 50.315201
    }
  },
  {
    "id": 763454,
    "name": "Obryte",
    "state": "",
    "country": "PL",
    "coord": {
      "lon": 21.249451,
      "lat": 52.716331
    }
  },
  {
    "id": 763464,
    "name": "Obrazów",
    "state": "",
    "country": "PL",
    "coord": {
      "lon": 21.65045,
      "lat": 50.69276
    }
  },
  {
    "id": 763471,
    "name": "Obozisko",
    "state": "",
    "country": "PL",
    "coord": {
      "lon": 21.15,
      "lat": 51.416672
    }
  },
  {
    "id": 763510,
    "name": "Nurzec-Stacja",
    "state": "",
    "country": "PL",
    "coord": {
      "lon": 23.085711,
      "lat": 52.46249
    }
  },
  {
    "id": 763513,
    "name": "Nur",
    "state": "",
    "country": "PL",
    "coord": {
      "lon": 22.322069,
      "lat": 52.668259
    }
  },
  {
    "id": 763517,
    "name": "Nozdrzec",
    "state": "",
    "country": "PL",
    "coord": {
      "lon": 22.19865,
      "lat": 49.773232
    }
  },
  {
    "id": 763519,
    "name": "Nowy Żmigród",
    "state": "",
    "country": "PL",
    "coord": {
      "lon": 21.52376,
      "lat": 49.603531
    }
  },
  {
    "id": 763521,
    "name": "Nowy Wiśnicz",
    "state": "",
    "country": "PL",
    "coord": {
      "lon": 20.46109,
      "lat": 49.91465
    }
  },
  {
    "id": 763523,
    "name": "Nowy Targ",
    "state": "",
    "country": "PL",
    "coord": {
      "lon": 20.03228,
      "lat": 49.477829
    }
  },
  {
    "id": 763534,
    "name": "Nowy Sącz",
    "state": "",
    "country": "PL",
    "coord": {
      "lon": 20.69705,
      "lat": 49.621769
    }
  },
  {
    "id": 763543,
    "name": "Nowy Łuków",
    "state": "",
    "country": "PL",
    "coord": {
      "lon": 22.371321,
      "lat": 51.921059
    }
  },
  {
    "id": 763545,
    "name": "Nowy Korczyn",
    "state": "",
    "country": "PL",
    "coord": {
      "lon": 20.80759,
      "lat": 50.301239
    }
  },
  {
    "id": 763556,
    "name": "Nowy Dwór Mazowiecki",
    "state": "",
    "country": "PL",
    "coord": {
      "lon": 20.71652,
      "lat": 52.430222
    }
  },
  {
    "id": 763585,
    "name": "Nowosielce-Gniewosz",
    "state": "",
    "country": "PL",
    "coord": {
      "lon": 22.069469,
      "lat": 49.56842
    }
  },
  {
    "id": 763586,
    "name": "Nowosielce",
    "state": "",
    "country": "PL",
    "coord": {
      "lon": 22.410561,
      "lat": 50.057468
    }
  },
  {
    "id": 763600,
    "name": "Nowogród",
    "state": "",
    "country": "PL",
    "coord": {
      "lon": 21.882099,
      "lat": 53.226978
    }
  },
  {
    "id": 763608,
    "name": "Nowodwór",
    "state": "",
    "country": "PL",
    "coord": {
      "lon": 22.10183,
      "lat": 51.639011
    }
  },
  {
    "id": 763650,
    "name": "Nowe Sioło",
    "state": "",
    "country": "PL",
    "coord": {
      "lon": 23.15884,
      "lat": 50.231941
    }
  },
  {
    "id": 763659,
    "name": "Nowe Miasto nad Pilicą",
    "state": "",
    "country": "PL",
    "coord": {
      "lon": 20.576191,
      "lat": 51.618118
    }
  },
  {
    "id": 763661,
    "name": "Nowe Miasto",
    "state": "",
    "country": "PL",
    "coord": {
      "lon": 20.62838,
      "lat": 52.65691
    }
  },
  {
    "id": 763676,
    "name": "Nowe Brzesko",
    "state": "",
    "country": "PL",
    "coord": {
      "lon": 20.376631,
      "lat": 50.132221
    }
  },
  {
    "id": 763719,
    "name": "Nowa Wieś",
    "state": "",
    "country": "PL",
    "coord": {
      "lon": 20.79192,
      "lat": 52.583839
    }
  },
  {
    "id": 763764,
    "name": "Nowa Słupia",
    "state": "",
    "country": "PL",
    "coord": {
      "lon": 21.09049,
      "lat": 50.864319
    }
  },
  {
    "id": 763765,
    "name": "Nowa Sarzyna",
    "state": "",
    "country": "PL",
    "coord": {
      "lon": 22.344561,
      "lat": 50.320862
    }
  },
  {
    "id": 763783,
    "name": "Nowa Dęba",
    "state": "",
    "country": "PL",
    "coord": {
      "lon": 21.75078,
      "lat": 50.429741
    }
  },
  {
    "id": 763823,
    "name": "Niwiska",
    "state": "",
    "country": "PL",
    "coord": {
      "lon": 21.63036,
      "lat": 50.224918
    }
  },
  {
    "id": 763829,
    "name": "Nisko",
    "state": "",
    "country": "PL",
    "coord": {
      "lon": 22.139681,
      "lat": 50.519871
    }
  },
  {
    "id": 763901,
    "name": "Nieporęt",
    "state": "",
    "country": "PL",
    "coord": {
      "lon": 21.03212,
      "lat": 52.431519
    }
  },
  {
    "id": 763903,
    "name": "Niepołomice",
    "state": "",
    "country": "PL",
    "coord": {
      "lon": 20.22257,
      "lat": 50.040661
    }
  },
  {
    "id": 763914,
    "name": "Nienadowa",
    "state": "",
    "country": "PL",
    "coord": {
      "lon": 22.42704,
      "lat": 49.82901
    }
  },
  {
    "id": 763945,
    "name": "Niemce",
    "state": "",
    "country": "PL",
    "coord": {
      "lon": 22.639391,
      "lat": 51.361549
    }
  },
  {
    "id": 763946,
    "name": "Nielisz",
    "state": "",
    "country": "PL",
    "coord": {
      "lon": 23.04451,
      "lat": 50.800671
    }
  },
  {
    "id": 763981,
    "name": "Niedźwiedź",
    "state": "",
    "country": "PL",
    "coord": {
      "lon": 20.093559,
      "lat": 50.224041
    }
  },
  {
    "id": 763982,
    "name": "Niedźwiedź",
    "state": "",
    "country": "PL",
    "coord": {
      "lon": 20.07794,
      "lat": 49.620998
    }
  },
  {
    "id": 763987,
    "name": "Niedźwiada",
    "state": "",
    "country": "PL",
    "coord": {
      "lon": 22.691401,
      "lat": 51.54409
    }
  },
  {
    "id": 763989,
    "name": "Niedźwiada",
    "state": "",
    "country": "PL",
    "coord": {
      "lon": 21.52162,
      "lat": 49.989368
    }
  },
  {
    "id": 763992,
    "name": "Niedzica",
    "state": "",
    "country": "PL",
    "coord": {
      "lon": 20.302731,
      "lat": 49.41008
    }
  },
  {
    "id": 764000,
    "name": "Niedrzwica Duża",
    "state": "",
    "country": "PL",
    "coord": {
      "lon": 22.389111,
      "lat": 51.11462
    }
  },
  {
    "id": 764002,
    "name": "Niedomice",
    "state": "",
    "country": "PL",
    "coord": {
      "lon": 20.895479,
      "lat": 50.107368
    }
  },
  {
    "id": 764026,
    "name": "Niechobrz",
    "state": "",
    "country": "PL",
    "coord": {
      "lon": 21.878241,
      "lat": 49.99472
    }
  },
  {
    "id": 764028,
    "name": "Niebylec",
    "state": "",
    "country": "PL",
    "coord": {
      "lon": 21.903481,
      "lat": 49.856689
    }
  },
  {
    "id": 764033,
    "name": "Nieborów",
    "state": "",
    "country": "PL",
    "coord": {
      "lon": 20.069019,
      "lat": 52.077709
    }
  },
  {
    "id": 764034,
    "name": "Niebocko",
    "state": "",
    "country": "PL",
    "coord": {
      "lon": 22.104839,
      "lat": 49.677738
    }
  },
  {
    "id": 764036,
    "name": "Niebieszczany",
    "state": "",
    "country": "PL",
    "coord": {
      "lon": 22.156509,
      "lat": 49.503479
    }
  },
  {
    "id": 764039,
    "name": "Nidzica",
    "state": "",
    "country": "PL",
    "coord": {
      "lon": 20.42749,
      "lat": 53.360519
    }
  },
  {
    "id": 764067,
    "name": "Nawojowa",
    "state": "",
    "country": "PL",
    "coord": {
      "lon": 20.739269,
      "lat": 49.56686
    }
  },
  {
    "id": 764100,
    "name": "Nasielsk",
    "state": "",
    "country": "PL",
    "coord": {
      "lon": 20.805531,
      "lat": 52.588871
    }
  },
  {
    "id": 764107,
    "name": "Naruszewo",
    "state": "",
    "country": "PL",
    "coord": {
      "lon": 20.35157,
      "lat": 52.526871
    }
  },
  {
    "id": 764117,
    "name": "Narol",
    "state": "",
    "country": "PL",
    "coord": {
      "lon": 23.32679,
      "lat": 50.349251
    }
  },
  {
    "id": 764125,
    "name": "Narew",
    "state": "",
    "country": "PL",
    "coord": {
      "lon": 23.51984,
      "lat": 52.914181
    }
  },
  {
    "id": 764145,
    "name": "Nałęczów",
    "state": "",
    "country": "PL",
    "coord": {
      "lon": 22.215389,
      "lat": 51.285809
    }
  },
  {
    "id": 764168,
    "name": "Nagłowice",
    "state": "",
    "country": "PL",
    "coord": {
      "lon": 20.106609,
      "lat": 50.678349
    }
  },
  {
    "id": 764194,
    "name": "Nadarzyn",
    "state": "",
    "country": "PL",
    "coord": {
      "lon": 20.80776,
      "lat": 52.094379
    }
  },
  {
    "id": 764204,
    "name": "Myszyniec",
    "state": "",
    "country": "PL",
    "coord": {
      "lon": 21.349609,
      "lat": 53.38055
    }
  },
  {
    "id": 764226,
    "name": "Mysiadło",
    "state": "",
    "country": "PL",
    "coord": {
      "lon": 21.01856,
      "lat": 52.102161
    }
  },
  {
    "id": 764241,
    "name": "Muszyna",
    "state": "",
    "country": "PL",
    "coord": {
      "lon": 20.897181,
      "lat": 49.356609
    }
  },
  {
    "id": 764255,
    "name": "Muranów",
    "state": "",
    "country": "PL",
    "coord": {
      "lon": 20.99021,
      "lat": 52.243679
    }
  },
  {
    "id": 764269,
    "name": "Mszczonów",
    "state": "",
    "country": "PL",
    "coord": {
      "lon": 20.52083,
      "lat": 51.974152
    }
  },
  {
    "id": 764275,
    "name": "Mszana Górna",
    "state": "",
    "country": "PL",
    "coord": {
      "lon": 20.09734,
      "lat": 49.662022
    }
  },